city,city_ascii,lat,lng,country,iso2,iso3,admin_name,capital,population,id
Tokyo,Tokyo,35.685,139.7514,Japan,JP,JPN,Tōkyō,primary,35676000,1392685764
Mumbai,Mumbai,19.017,72.857,India,IN,IND,Mahārāshtra,admin,18978000,1356226629
Delhi,Delhi,28.67,77.23,India,IN,IND,Delhi,admin,15926000,1356872604
Shanghai,Shanghai,31.2165,121.4365,China,CN,CHN,Shanghai,admin,14987000,1156073548
Kolkata,Kolkata,22.495,88.3247,India,IN,IND,West Bengal,admin,14787000,1356060520
Dhaka,Dhaka,23.7231,90.4086,Bangladesh,BD,BGD,Dhaka,primary,12797394,1050529279
Karachi,Karachi,24.87,66.99,Pakistan,PK,PAK,Sindh,admin,12130000,1586129469
Ōsaka,Osaka,34.75,135.4601,Japan,JP,JPN,Ōsaka,admin,11294000,1392419823
Beijing,Beijing,39.9289,116.3883,China,CN,CHN,Beijing,primary,11106000,1156228865
Manila,Manila,14.6042,120.9822,Philippines,PH,PHL,Manila,primary,11100000,1608618140
Seoul,Seoul,37.5663,126.9997,"Korea, South",KR,KOR,Seoul,primary,9796000,1410836482
Jakarta,Jakarta,-6.1744,106.8294,Indonesia,ID,IDN,Jakarta,primary,9125000,1360771077
Guangzhou,Guangzhou,23.145,113.325,China,CN,CHN,Guangdong,admin,8829000,1156237133
Shenzhen,Shenzhen,22.5524,114.1221,China,CN,CHN,Guangdong,minor,7581000,1156158707
Wuhan,Wuhan,30.58,114.27,China,CN,CHN,Hubei,admin,7243000,1156117184
Hong Kong,Hong Kong,22.305,114.185,Hong Kong,HK,HKG,,,7206000,1344982653
Tianjin,Tianjin,39.13,117.2,China,CN,CHN,Tianjin,admin,7180000,1156174046
Chennai,Chennai,13.09,80.28,India,IN,IND,Tamil Nādu ,admin,7163000,1356374944
Taipei,Taipei,25.0358,121.5683,Taiwan,TW,TWN,Taipei,primary,6900273,1158881289
Bengalūru,Bengaluru,12.97,77.56,India,IN,IND,Karnātaka,admin,6787000,1356410365
Bangkok,Bangkok,13.75,100.5166,Thailand,TH,THA,Krung Thep Maha Nakhon,primary,6704000,1764068610
Lahore,Lahore,31.56,74.35,Pakistan,PK,PAK,Punjab,admin,6577000,1586801463
Chongqing,Chongqing,29.565,106.595,China,CN,CHN,Chongqing,admin,6461000,1156936556
Hyderabad,Hyderabad,17.4,78.48,India,IN,IND,Telangana,admin,6376000,1356871768
Ahmadābād,Ahmadabad,23.0301,72.58,India,IN,IND,Gujarāt,minor,5375000,1356304381
Ho Chi Minh City,Ho Chi Minh City,10.78,106.695,Vietnam,VN,VNM,Hồ Chí Minh,admin,5314000,1704774326
Singapore,Singapore,1.293,103.8558,Singapore,SG,SGP,,primary,5183700,1702341327
Hāora,Haora,22.5804,88.3299,India,IN,IND,West Bengal,,4841638,1356986516
Shenyang,Shenyang,41.805,123.45,China,CN,CHN,Liaoning,admin,4787000,1156309382
Pune,Pune,18.53,73.85,India,IN,IND,Mahārāshtra,,4672000,1356081074
Chittagong,Chittagong,22.33,91.8,Bangladesh,BD,BGD,Chittagong,admin,4529000,1050830722
Dongguan,Dongguan,23.0489,113.7447,China,CN,CHN,Guangdong,minor,4528000,1156478242
Hanoi,Hanoi,21.0333,105.85,Vietnam,VN,VNM,Hà Nội,primary,4378000,1704413791
Chengdu,Chengdu,30.67,104.07,China,CN,CHN,Sichuan,admin,4123000,1156421555
Rangoon,Rangoon,16.7834,96.1667,Burma,MM,MMR,Yangon,primary,4088000,1104616656
Xi’an,Xi'an,34.275,108.895,China,CN,CHN,Shaanxi,admin,4009000,1156244079
Sūrat,Surat,21.2,72.84,India,IN,IND,Gujarāt,,3842000,1356758738
Hechi,Hechi,23.0965,109.6091,China,CN,CHN,Guangxi,,3830000,1156868701
Yokohama,Yokohama,35.32,139.58,Japan,JP,JPN,Kanagawa,admin,3697894,1392118339
Nanjing,Nanjing,32.05,118.78,China,CN,CHN,Jiangsu,admin,3679000,1156644065
Guiyang,Guiyang,26.58,106.72,China,CN,CHN,Guizhou,admin,3662000,1156932620
Harbin,Harbin,45.75,126.65,China,CN,CHN,Heilongjiang,admin,3621000,1156241528
Zhangzhou,Zhangzhou,24.5204,117.67,China,CN,CHN,Fujian,minor,3531147,1156241637
Busan,Busan,35.0951,129.01,"Korea, South",KR,KOR,Busan,admin,3480000,1410601465
Nagoya,Nagoya,35.155,136.915,Japan,JP,JPN,Aichi,admin,3230000,1392407472
Changchun,Changchun,43.865,125.34,China,CN,CHN,Jilin,admin,3183000,1156078103
Dalian,Dalian,38.9228,121.6298,China,CN,CHN,Liaoning,,3167000,1156175472
Cawnpore,Cawnpore,26.46,80.32,India,IN,IND,Uttar Pradesh,,3162000,1356575238
Zibo,Zibo,36.8,118.05,China,CN,CHN,Shandong,,3061000,1156381094
Hangzhou,Hangzhou,30.25,120.17,China,CN,CHN,Zhejiang,admin,3007000,1156275243
Kunming,Kunming,25.07,102.68,China,CN,CHN,Yunnan,admin,2931000,1156477539
Jaipur,Jaipur,26.9211,75.81,India,IN,IND,Rājasthān,admin,2917000,1356293537
Taiyuan,Taiyuan,37.875,112.5451,China,CN,CHN,Shanxi,admin,2913000,1156632014
Qingdao,Qingdao,36.09,120.33,China,CN,CHN,Shandong,minor,2866000,1156112588
Surabaya,Surabaya,-7.2492,112.7508,Indonesia,ID,IDN,Jawa Timur,admin,2845000,1360484663
Jinan,Jinan,36.675,116.995,China,CN,CHN,Shandong,admin,2798000,1156972469
Fukuoka,Fukuoka,33.595,130.41,Japan,JP,JPN,Fukuoka,admin,2792000,1392576294
Kaohsiung,Kaohsiung,22.6333,120.2666,Taiwan,TW,TWN,Kaohsiung,admin,2769072,1158331334
Quezon City,Quezon City,14.6504,121.03,Philippines,PH,PHL,Quezon,admin,2761720,1608974097
Lucknow,Lucknow,26.855,80.915,India,IN,IND,Uttar Pradesh,admin,2695000,1356891790
Zhengzhou,Zhengzhou,34.755,113.6651,China,CN,CHN,Henan,admin,2636000,1156183137
Taichung,Taichung,24.1521,120.6817,Taiwan,TW,TWN,Taichung,admin,2629323,1158689622
Faisalabad,Faisalabad,31.41,73.11,Pakistan,PK,PAK,Punjab,minor,2617000,1586323916
Fuzhou,Fuzhou,26.08,119.3,China,CN,CHN,Fujian,admin,2606000,1156188037
Changsha,Changsha,28.2,112.97,China,CN,CHN,Hunan,admin,2604000,1156961497
Xiangtan,Xiangtan,27.8504,112.9,China,CN,CHN,Hunan,,2586948,1156195684
Lanzhou,Lanzhou,36.056,103.792,China,CN,CHN,Gansu,admin,2561000,1156280566
Incheon,Incheon,37.4761,126.6422,"Korea, South",KR,KOR,Incheon,admin,2550000,1410160313
Sapporo,Sapporo,43.075,141.34,Japan,JP,JPN,Hokkaidō,admin,2544000,1392000195
Xiamen,Xiamen,24.45,118.08,China,CN,CHN,Fujian,minor,2519000,1156212809
George Town,George Town,5.4136,100.3294,Malaysia,MY,MYS,Pulau Pinang,admin,2500000,1458236750
Daegu,Daegu,35.8668,128.607,"Korea, South",KR,KOR,Daegu,admin,2460000,1410095252
Nāgpur,Nagpur,21.17,79.09,India,IN,IND,Mahārāshtra,,2454000,1356365743
Lianshan,Lianshan,40.7503,120.83,China,CN,CHN,Liaoning,minor,2426000,1156046704
Shijiazhuang,Shijiazhuang,38.05,114.48,China,CN,CHN,Hebei,admin,2417000,1156217541
Jilin,Jilin,43.85,126.55,China,CN,CHN,Jilin,,2396000,1156646448
Bandung,Bandung,-6.95,107.57,Indonesia,ID,IDN,Jawa Barat,admin,2394000,1360313023
Bekasi,Bekasi,-6.2173,106.9723,Indonesia,ID,IDN,Jawa Barat,,2378211,1360006015
Nanchang,Nanchang,28.68,115.88,China,CN,CHN,Jiangxi,admin,2350000,1156198892
Wenzhou,Wenzhou,28.02,120.6501,China,CN,CHN,Zhejiang,,2350000,1156188829
Sendai,Sendai,38.2871,141.0217,Japan,JP,JPN,Miyagi,admin,2250000,1392457903
Gaoping,Gaoping,30.7804,106.13,China,CN,CHN,Sichuan,minor,2174000,1156522457
Nanning,Nanning,22.82,108.32,China,CN,CHN,Guangxi,admin,2167000,1156605439
Patna,Patna,25.625,85.13,India,IN,IND,Bihār,admin,2158000,1356821429
Ürümqi,Urumqi,43.805,87.575,China,CN,CHN,Xinjiang,admin,2151000,1156051276
Zaozhuang,Zaozhuang,34.88,117.57,China,CN,CHN,Shandong,,2145000,1156796454
Yantai,Yantai,37.5304,121.4,China,CN,CHN,Shandong,,2116000,1156932948
Medan,Medan,3.58,98.65,Indonesia,ID,IDN,Sumatera Utara,admin,2115000,1360543171
Tongshan,Tongshan,34.28,117.18,China,CN,CHN,Jiangsu,minor,2091000,1156241678
Linyi,Linyi,35.08,118.33,China,CN,CHN,Shandong,,2082000,1156086320
Haikou,Haikou,20.05,110.32,China,CN,CHN,Hainan,admin,2046189,1156183327
Hiroshima,Hiroshima,34.3878,132.4429,Japan,JP,JPN,Hiroshima,admin,2045000,1392373695
Baotou,Baotou,40.6522,109.822,China,CN,CHN,Inner Mongolia,,2036000,1156032751
Hefei,Hefei,31.85,117.28,China,CN,CHN,Anhui,admin,2035000,1156332710
Indore,Indore,22.7151,75.865,India,IN,IND,Madhya Pradesh,,2026000,1356402812
Haiphong,Haiphong,20.83,106.6801,Vietnam,VN,VNM,Hải Phòng,admin,1969000,1704000623
Suzhou,Suzhou,33.6361,116.9789,China,CN,CHN,Anhui,,1964000,1156871297
Nanyang,Nanyang,33.0004,112.53,China,CN,CHN,Henan,,1944000,1156192287
Ningbo,Ningbo,29.88,121.55,China,CN,CHN,Zhejiang,minor,1923000,1156170787
Tangshan,Tangshan,39.6243,118.1944,China,CN,CHN,Hebei,,1879000,1156904299
Tainan,Tainan,23,120.2,Taiwan,TW,TWN,Tainan,admin,1876312,1158061376
Xiping,Xiping,40.08,113.3,China,CN,CHN,Shanxi,minor,1873000,1156898522
Saidu Sharif,Saidu Sharif,34.75,72.35,Pakistan,PK,PAK,Khyber Pakhtunkhwa,minor,1860310,1586619596
Rawalpindi,Rawalpindi,33.6,73.04,Pakistan,PK,PAK,Punjab,minor,1858000,1586344001
Kyōto,Kyoto,35.03,135.75,Japan,JP,JPN,Kyōto,admin,1805000,1392622735
Shuyangzha,Shuyangzha,34.1299,118.7734,China,CN,CHN,Jiangsu,,1770000,1156051957
Vadodara,Vadodara,22.31,73.18,India,IN,IND,Gujarāt,,1756000,1356705249
Shangqiu,Shangqiu,34.4504,115.65,China,CN,CHN,Henan,,1753000,1156805441
Wuxi,Wuxi,31.58,120.3,China,CN,CHN,Jiangsu,minor,1749000,1156019650
Palembang,Palembang,-2.98,104.75,Indonesia,ID,IDN,Sumatera Selatan,admin,1749000,1360902897
Bhopal,Bhopal,23.25,77.41,India,IN,IND,Madhya Pradesh,admin,1727000,1356734039
Hohhot,Hohhot,40.82,111.66,China,CN,CHN,Inner Mongolia,admin,1726000,1156210167
Luoyang,Luoyang,34.68,112.4701,China,CN,CHN,Henan,,1715000,1156069315
Jingling,Jingling,30.6501,113.16,China,CN,CHN,Hubei,,1708000,1156060544
Coimbatore,Coimbatore,11,76.95,India,IN,IND,Tamil Nādu ,,1696000,1356999503
Daqing,Daqing,46.58,125,China,CN,CHN,Heilongjiang,,1693000,1156403962
Lu’an,Lu'an,31.7503,116.48,China,CN,CHN,Anhui,minor,1690000,1156499624
Sanzhou,Sanzhou,30.82,108.4,China,CN,CHN,Chongqing,,1680000,1156025536
Suzhou,Suzhou,31.3005,120.62,China,CN,CHN,Jiangsu,minor,1650000,1156029196
Ludhiāna,Ludhiana,30.9278,75.8723,India,IN,IND,Punjab,,1649000,1356929498
Qiqihar,Qiqihar,47.345,123.99,China,CN,CHN,Heilongjiang,minor,1641000,1156775905
Anshan,Anshan,41.115,122.94,China,CN,CHN,Liaoning,,1639000,1156901825
Zhongli,Zhongli,24.965,121.2168,Taiwan,TW,TWN,Taoyuan,,1632616,1158025380
Handan,Handan,36.58,114.48,China,CN,CHN,Hebei,,1631000,1156957080
Tai’an,Tai'an,36.2,117.1201,China,CN,CHN,Shandong,,1629000,1156095188
Shantou,Shantou,23.37,116.67,China,CN,CHN,Guangdong,minor,1601000,1156457499
Āgra,Agra,27.1704,78.015,India,IN,IND,Uttar Pradesh,,1592000,1356187395
Zhanjiang,Zhanjiang,21.2,110.38,China,CN,CHN,Guangdong,minor,1590000,1156502170
Kalyān,Kalyan,19.2502,73.1602,India,IN,IND,Mahārāshtra,,1576614,1356172246
Xiantao,Xiantao,30.3704,113.44,China,CN,CHN,Hubei,,1556000,1156216927
Khulna,Khulna,22.84,89.56,Bangladesh,BD,BGD,Khulna,admin,1553000,1050667339
Weifang,Weifang,36.7204,119.1001,China,CN,CHN,Shandong,,1553000,1156912965
Xinyang,Xinyang,32.1304,114.07,China,CN,CHN,Henan,,1541000,1156273453
Luzhou,Luzhou,28.88,105.38,China,CN,CHN,Sichuan,minor,1537000,1156582079
Vishākhapatnam,Vishakhapatnam,17.73,83.305,India,IN,IND,Andhra Pradesh,,1529000,1356692563
Kōbe,Kobe,34.68,135.17,Japan,JP,JPN,Hyōgo,admin,1528478,1392978082
Multan,Multan,30.2,71.455,Pakistan,PK,PAK,Punjab,minor,1522000,1586256291
Kochi,Kochi,10.015,76.2239,India,IN,IND,Kerala,,1519000,1356707865
Gujranwala,Gujranwala,32.1604,74.185,Pakistan,PK,PAK,Punjab,minor,1513000,1586400472
Ganzhou,Ganzhou,25.92,114.95,China,CN,CHN,Jiangxi,minor,1500000,1156832475
Liuzhou,Liuzhou,24.28,109.25,China,CN,CHN,Guangxi,minor,1497000,1156360785
Nāsik,Nasik,20.0004,73.78,India,IN,IND,Mahārāshtra,,1473000,1356562598
Fushun,Fushun,41.8654,123.87,China,CN,CHN,Liaoning,,1470000,1156857743
Changde,Changde,29.03,111.68,China,CN,CHN,Hunan,minor,1469000,1156449091
Daejeon,Daejeon,36.3355,127.425,"Korea, South",KR,KOR,Daejeon,admin,1468000,1410993875
Phnom Penh,Phnom Penh,11.55,104.9166,Cambodia,KH,KHM,Phnom Penh,primary,1466000,1116260534
Neijiang,Neijiang,29.5804,105.05,China,CN,CHN,Sichuan,minor,1466000,1156516335
Quanzhou,Quanzhou,24.9,118.58,China,CN,CHN,Fujian,minor,1463000,1156829655
Hyderabad City,Hyderabad City,25.38,68.375,Pakistan,PK,PAK,Sindh,,1459000,1586427790
Huainan,Huainan,32.63,116.98,China,CN,CHN,Anhui,,1451000,1156877299
Kuala Lumpur,Kuala Lumpur,3.1667,101.7,Malaysia,MY,MYS,Kuala Lumpur ,primary,1448000,1458988644
Gwangju,Gwangju,35.171,126.9104,"Korea, South",KR,KOR,Gwangju,admin,1440000,1410000087
Kawanakajima,Kawanakajima,35.53,139.705,Japan,JP,JPN,Kanagawa,,1437266,1392879600
Suining,Suining,30.5333,105.5333,China,CN,CHN,Sichuan,minor,1425000,1156655650
Davao,Davao,7.11,125.63,Philippines,PH,PHL,Davao,admin,1402000,1608906877
Meerut,Meerut,29.0004,77.7,India,IN,IND,Uttar Pradesh,,1398000,1356390476
Mianyang,Mianyang,31.47,104.77,China,CN,CHN,Sichuan,minor,1396000,1156417758
Semarang,Semarang,-6.9666,110.42,Indonesia,ID,IDN,Jawa Tengah,admin,1396000,1360745537
Farīdābād,Faridabad,28.4333,77.3167,India,IN,IND,Haryāna,,1394000,1356013205
Ma’anshan,Ma'anshan,31.7304,118.48,China,CN,CHN,Anhui,minor,1366302,1156847452
Yiyang,Yiyang,28.6004,112.33,China,CN,CHN,Hunan,,1352000,1156218615
Vārānasi,Varanasi,25.33,83,India,IN,IND,Uttar Pradesh,,1352000,1356145782
Ghāziābād,Ghaziabad,28.6604,77.4084,India,IN,IND,Uttar Pradesh,,1341000,1356691871
Heze,Heze,35.23,115.45,China,CN,CHN,Shandong,minor,1338000,1156225008
Āsansol,Asansol,23.6833,86.9833,India,IN,IND,West Bengal,,1328000,1356093694
Changzhou,Changzhou,31.78,119.97,China,CN,CHN,Jiangsu,minor,1327000,1156185511
Peshawar,Peshawar,34.005,71.535,Pakistan,PK,PAK,Khyber Pakhtunkhwa,admin,1303000,1586851102
Mandalay,Mandalay,21.97,96.085,Burma,MM,MMR,Mandalay,admin,1300000,1104468217
Jamshedpur,Jamshedpur,22.7875,86.1975,India,IN,IND,Jharkhand,,1300000,1356501259
Madura,Madura,9.92,78.12,India,IN,IND,Tamil Nādu ,,1294000,1356257289
Jabalpur,Jabalpur,23.1751,79.9551,India,IN,IND,Madhya Pradesh,,1285000,1356115460
Chifeng,Chifeng,42.27,118.95,China,CN,CHN,Inner Mongolia,minor,1277000,1156277458
Huaiyin,Huaiyin,33.58,119.03,China,CN,CHN,Jiangsu,,1264000,1156662372
Makassar,Makassar,-5.14,119.432,Indonesia,ID,IDN,Sulawesi Selatan,admin,1262000,1360051337
Rājkot,Rajkot,22.31,70.8,India,IN,IND,Gujarāt,,1260000,1356317190
Dhanbād,Dhanbad,23.8004,86.42,India,IN,IND,Jharkhand,,1246000,1356103392
Mudanjiang,Mudanjiang,44.575,129.59,China,CN,CHN,Heilongjiang,minor,1244000,1156249698
Huzhou,Huzhou,30.8704,120.1,China,CN,CHN,Zhejiang,minor,1231000,1156335543
Beidao,Beidao,34.6,105.92,China,CN,CHN,Gansu,minor,1225000,1156137209
Shuangshui,Shuangshui,26.5944,104.8333,China,CN,CHN,Guizhou,,1221000,1156070389
Gaozhou,Gaozhou,21.9204,110.87,China,CN,CHN,Guangdong,,1217715,1156785303
Amritsar,Amritsar,31.64,74.87,India,IN,IND,Punjab,,1212000,1356926507
Warangal,Warangal,18.01,79.58,India,IN,IND,Telangana,,1203853,1356851618
Allahābād,Allahabad,25.455,81.84,India,IN,IND,Uttar Pradesh,,1201000,1356718332
Jining,Jining,35.4004,116.55,China,CN,CHN,Shandong,,1186000,1156504601
Abbottabad,Abbottabad,34.1495,73.1995,Pakistan,PK,PAK,Khyber Pakhtunkhwa,minor,1183647,1586788758
Cilacap,Cilacap,-7.7188,109.0154,Indonesia,ID,IDN,Jawa Tengah,minor,1174964,1360503809
Leshan,Leshan,29.5671,103.7333,China,CN,CHN,Sichuan,,1157000,1156203130
Shangrao,Shangrao,28.4704,117.97,China,CN,CHN,Jiangxi,minor,1144577,1156405492
Srīnagar,Srinagar,34.1,74.815,India,IN,IND,Jammu and Kashmīr,admin,1140000,1356442950
Bezwāda,Bezwada,16.52,80.63,India,IN,IND,Andhra Pradesh,,1137000,1356807575
Yulin,Yulin,22.63,110.15,China,CN,CHN,Guangxi,,1127000,1156901312
Xianyang,Xianyang,34.3456,108.7147,China,CN,CHN,Shaanxi,minor,1126000,1156120117
Cagayan de Oro,Cagayan de Oro,8.4508,124.6853,Philippines,PH,PHL,Cagayan de Oro,admin,1121561,1608831546
Cần Thơ,Can Tho,10.05,105.77,Vietnam,VN,VNM,Cần Thơ,admin,1121000,1704783472
Aurangābād,Aurangabad,19.8957,75.3203,India,IN,IND,Mahārāshtra,,1113000,1356840670
Baoding,Baoding,38.8704,115.48,China,CN,CHN,Hebei,,1107000,1156256829
Zigong,Zigong,29.4,104.78,China,CN,CHN,Sichuan,,1105000,1156023354
Ankang,Ankang,32.68,109.02,China,CN,CHN,Shaanxi,,1100000,1156255711
Bhilai,Bhilai,21.2167,81.4333,India,IN,IND,Chhattīsgarh,,1097000,1356071083
Jinhua,Jinhua,29.12,119.65,China,CN,CHN,Zhejiang,minor,1092852,1156547188
Changwon,Changwon,35.2191,128.5836,"Korea, South",KR,KOR,Gyeongnam,admin,1081499,1410592618
Zhuzhou,Zhuzhou,27.83,113.15,China,CN,CHN,Hunan,minor,1080000,1156041962
Suwon,Suwon,37.2578,127.0109,"Korea, South",KR,KOR,Gyeonggi,admin,1078000,1410679777
Xiangyang,Xiangyang,32.02,112.13,China,CN,CHN,Hubei,minor,1069000,1156107325
Ulsan,Ulsan,35.5467,129.317,"Korea, South",KR,KOR,Ulsan,admin,1061000,1410134602
Mizhou,Mizhou,35.99,119.3801,China,CN,CHN,Shandong,minor,1060000,1156935002
Solāpur,Solapur,17.6704,75.9,India,IN,IND,Mahārāshtra,,1057000,1356314385
Xining,Xining,36.62,101.77,China,CN,CHN,Qinghai,admin,1048000,1156081448
Zhangjiakou,Zhangjiakou,40.83,114.93,China,CN,CHN,Hebei,,1046000,1156800221
Ranchi,Ranchi,23.37,85.33,India,IN,IND,Jharkhand,admin,1044000,1356110588
Zhuhai,Zhuhai,22.2769,113.5678,China,CN,CHN,Guangdong,minor,1023000,1156722242
Jiamusi,Jiamusi,46.83,130.35,China,CN,CHN,Heilongjiang,minor,1020000,1156350864
Hengyang,Hengyang,26.88,112.59,China,CN,CHN,Hunan,,1016000,1156696884
Benxi,Benxi,41.3304,123.75,China,CN,CHN,Liaoning,,1012000,1156097909
Qinhuangdao,Qinhuangdao,39.9304,119.62,China,CN,CHN,Hebei,,1003000,1156091093
Nay Pyi Taw,Nay Pyi Taw,19.7666,96.1186,Burma,MM,MMR,Nay Pyi Taw,primary,930000,1104838105
Kathmandu,Kathmandu,27.7167,85.3166,Nepal,NP,NPL,Bāgmatī,primary,895000,1524589448
Islamabad,Islamabad,33.7,73.1666,Pakistan,PK,PAK,Islāmābād,primary,780000,1586306717
New Delhi,New Delhi,28.6,77.2,India,IN,IND,Delhi,primary,317797,1356215164
Colombo,Colombo,6.932,79.8578,Sri Lanka,LK,LKA,Western,primary,217000,1144251314
Sri Jayewardenepura Kotte,Sri Jayewardenepura Kotte,6.9,79.95,Sri Lanka,LK,LKA,Western,primary,115826,1144239330
Yongzhou,Yongzhou,26.2304,111.62,China,CN,CHN,Hunan,,1000000,1156694479
Baoshan,Baoshan,25.12,99.15,China,CN,CHN,Yunnan,,1000000,1156546994
Quảng Hà,Quang Ha,16.06,108.25,Vietnam,VN,VNM,Quảng Nam,,1000000,1704966442
Kitaku,Kitaku,33.8704,130.82,Japan,JP,JPN,Fukuoka,,997536,1392129541
Jodhpur,Jodhpur,26.2918,73.0168,India,IN,IND,Rājasthān,,995000,1356727084
Yinchuan,Yinchuan,38.468,106.273,China,CN,CHN,Ningxia,admin,991000,1156359072
Jiaxing,Jiaxing,30.7704,120.75,China,CN,CHN,Zhejiang,minor,988000,1156491661
Guilin,Guilin,25.28,110.28,China,CN,CHN,Guangxi,minor,987000,1156235364
Guwāhāti,Guwahati,26.16,91.77,India,IN,IND,Assam,,983000,1356593800
Yichun,Yichun,27.8333,114.4,China,CN,CHN,Jiangxi,minor,982000,1156229590
Yangquan,Yangquan,37.87,113.57,China,CN,CHN,Shanxi,minor,981448,1156157844
Chandigarh,Chandigarh,30.72,76.78,India,IN,IND,Chandīgarh,admin,979000,1356739179
Gwalior,Gwalior,26.23,78.1801,India,IN,IND,Madhya Pradesh,,978000,1356363967
Hamamatsu,Hamamatsu,34.7181,137.7327,Japan,JP,JPN,Shizuoka,,977023,1392174500
Jixi,Jixi,45.3,130.97,China,CN,CHN,Heilongjiang,minor,965000,1156393765
Xin’an,Xin'an,34.38,118.35,China,CN,CHN,Jiangsu,,962656,1156236053
Pingxiang,Pingxiang,27.62,113.85,China,CN,CHN,Jiangxi,minor,961000,1156066465
Klang,Klang,3.0204,101.55,Malaysia,MY,MYS,Selangor,,956000,1458509635
Jinzhou,Jinzhou,41.1204,121.1,China,CN,CHN,Liaoning,,956000,1156157151
Thiruvananthapuram,Thiruvananthapuram,8.5,76.95,India,IN,IND,Kerala,admin,954000,1356024354
Calicut,Calicut,11.2504,75.77,India,IN,IND,Kerala,minor,953000,1356010401
Trichinopoly,Trichinopoly,10.81,78.69,India,IN,IND,Tamil Nādu ,,951000,1356884472
General Santos,General Santos,6.1108,125.1747,Philippines,PH,PHL,General Santos,admin,950530,1608171585
Huế,Hue,16.47,107.58,Vietnam,VN,VNM,Thừa Thiên-Huế,admin,950000,1704016023
Bacolod,Bacolod,10.6317,122.9817,Philippines,PH,PHL,Bacolod,admin,949354,1608244137
Nantong,Nantong,32.0304,120.825,China,CN,CHN,Jiangsu,minor,947000,1156045365
Foshan,Foshan,23.0301,113.12,China,CN,CHN,Guangdong,minor,943000,1156738403
Sŏngnam,Songnam,37.4386,127.1378,"Korea, South",KR,KOR,Gyeonggi,,942000,1410622472
Bogor,Bogor,-6.57,106.75,Indonesia,ID,IDN,Jawa Barat,,918000,1360771925
Huaibei,Huaibei,33.9504,116.75,China,CN,CHN,Anhui,,913000,1156142626
Xinyu,Xinyu,27.8,114.93,China,CN,CHN,Jiangxi,minor,913000,1156138735
Naha,Naha,26.2072,127.673,Japan,JP,JPN,Okinawa,admin,905238,1392583118
Goyang,Goyang,37.6527,126.8372,"Korea, South",KR,KOR,Gyeonggi,minor,903000,1410511255
Nangandao,Nangandao,35.3204,113.87,China,CN,CHN,Henan,minor,903000,1156127660
Yibin,Yibin,28.77,104.57,China,CN,CHN,Sichuan,minor,902000,1156107603
Bengbu,Bengbu,32.95,117.33,China,CN,CHN,Anhui,,894000,1156440668
Hubli,Hubli,15.36,75.125,India,IN,IND,Karnātaka,,890000,1356102365
Dengtalu,Dengtalu,36.08,114.35,China,CN,CHN,Henan,minor,887000,1156202014
Mysore,Mysore,12.31,76.66,India,IN,IND,Karnātaka,,887000,1356779323
Tongliao,Tongliao,43.62,122.27,China,CN,CHN,Inner Mongolia,minor,884000,1156358686
Johor Bahru,Johor Bahru,1.48,103.73,Malaysia,MY,MYS,Johor,admin,875000,1458747615
Raipur,Raipur,21.235,81.635,India,IN,IND,Chhattīsgarh,admin,875000,1356374983
Xiaoxita,Xiaoxita,30.7,111.28,China,CN,CHN,Hubei,minor,875000,1156764447
Salem,Salem,11.67,78.1801,India,IN,IND,Tamil Nādu ,,873000,1356567087
Yangjiang,Yangjiang,21.8504,111.97,China,CN,CHN,Guangdong,minor,872363,1156123172
Kaifeng Chengguanzhen,Kaifeng Chengguanzhen,34.85,114.35,China,CN,CHN,Henan,minor,872000,1156686574
Dandong,Dandong,40.1436,124.3936,China,CN,CHN,Liaoning,,870000,1156178316
Okayama,Okayama,34.672,133.9171,Japan,JP,JPN,Okayama,admin,866092,1392954750
Bucheon,Bucheon,37.4989,126.7831,"Korea, South",KR,KOR,Gyeonggi,minor,866000,1410428222
Xuanzhou,Xuanzhou,30.9525,118.7553,China,CN,CHN,Anhui,,866000,1156424311
Bandar Lampung,Bandar Lampung,-5.43,105.27,Indonesia,ID,IDN,Lampung,admin,865000,1360243491
Rizhao,Rizhao,35.4304,119.45,China,CN,CHN,Shandong,minor,865000,1156032841
Jiaozuo,Jiaozuo,35.25,113.22,China,CN,CHN,Henan,,857000,1156157854
Padang,Padang,-0.96,100.36,Indonesia,ID,IDN,Sumatera Barat,admin,855000,1360900986
Jalandhar,Jalandhar,31.3349,75.569,India,IN,IND,Punjab,,855000,1356494816
Zhenjiang,Zhenjiang,32.22,119.43,China,CN,CHN,Jiangsu,minor,854000,1156934125
Pingdingshan,Pingdingshan,33.7304,113.3,China,CN,CHN,Henan,,849000,1156735124
Zunyi,Zunyi,27.7,106.92,China,CN,CHN,Guizhou,,849000,1156539782
Anshun,Anshun,26.2504,105.93,China,CN,CHN,Guizhou,,849000,1156415948
Bhubaneshwar,Bhubaneshwar,20.2704,85.8274,India,IN,IND,Odisha,admin,844000,1356140143
Yuci,Yuci,37.6804,112.73,China,CN,CHN,Shanxi,,840000,1156177817
Yancheng,Yancheng,33.3856,120.1253,China,CN,CHN,Jiangsu,minor,839000,1156995410
Linfen,Linfen,36.0803,111.52,China,CN,CHN,Shanxi,,834000,1156416074
Kota,Kota,25.18,75.835,India,IN,IND,Rājasthān,,827000,1356820310
Jhānsi,Jhansi,25.453,78.5575,India,IN,IND,Uttar Pradesh,,826494,1356712664
Rongjiawan,Rongjiawan,29.3801,113.1,China,CN,CHN,Hunan,minor,826000,1156795164
Butterworth,Butterworth,5.4171,100.4,Malaysia,MY,MYS,Pulau Pinang,,821652,1458469233
Bareilly,Bareilly,28.3454,79.42,India,IN,IND,Uttar Pradesh,,817000,1356698199
Xingyi,Xingyi,25.0904,104.89,China,CN,CHN,Guizhou,,816000,1156255316
Cebu City,Cebu City,10.32,123.9001,Philippines,PH,PHL,Cebu,admin,815000,1608136151
Wuhu,Wuhu,31.3504,118.37,China,CN,CHN,Anhui,minor,810000,1156315512
Langfang,Langfang,39.5204,116.68,China,CN,CHN,Hebei,,810000,1156109017
Rājshāhi,Rajshahi,24.375,88.605,Bangladesh,BD,BGD,Rājshāhi,admin,810000,1050547831
Zhaotong,Zhaotong,27.3204,103.72,China,CN,CHN,Yunnan,,809000,1156924687
Lingyuan,Lingyuan,41.24,119.4011,China,CN,CHN,Liaoning,,806000,1156184681
Quy Nhơn,Quy Nhon,13.78,109.18,Vietnam,VN,VNM,Bình Định,admin,805290,1704056461
Malang,Malang,-7.98,112.61,Indonesia,ID,IDN,Jawa Timur,,805000,1360141408
Alīgarh,Aligarh,27.8922,78.0618,India,IN,IND,Uttar Pradesh,,805000,1356076391
Baojishi,Baojishi,34.38,107.15,China,CN,CHN,Shaanxi,,800000,1156101096
Pekanbaru,Pekanbaru,0.565,101.425,Indonesia,ID,IDN,Riau,admin,799000,1360422679
Yingkou,Yingkou,40.6703,122.28,China,CN,CHN,Liaoning,minor,795000,1156257074
Bhiwandi,Bhiwandi,19.35,73.13,India,IN,IND,Mahārāshtra,,795000,1356763571
Liaoyang,Liaoyang,41.28,123.18,China,CN,CHN,Liaoning,,794000,1156202749
Jammu,Jammu,32.7118,74.8467,India,IN,IND,Jammu and Kashmīr,,791000,1356491738
Melaka,Melaka,2.2064,102.2465,Malaysia,MY,MYS,Melaka,admin,788706,1458467506
Morādābād,Moradabad,28.8418,78.7568,India,IN,IND,Uttar Pradesh,,787000,1356269375
Shaoxing,Shaoxing,30.0004,120.57,China,CN,CHN,Zhejiang,minor,777000,1156893449
Yichun,Yichun,47.6999,128.9,China,CN,CHN,Heilongjiang,minor,777000,1156757274
Mangalore,Mangalore,12.9,74.85,India,IN,IND,Karnātaka,,776632,1356972351
Cheongju,Cheongju,36.6439,127.5012,"Korea, South",KR,KOR,Chungbuk,admin,775096,1410964361
Zamboanga City,Zamboanga City,6.92,122.08,Philippines,PH,PHL,Zamboanga,admin,773000,1608189351
Fuyang,Fuyang,30.0533,119.9519,China,CN,CHN,Zhejiang,minor,771000,1156340393
Fuxin,Fuxin,42.0105,121.66,China,CN,CHN,Liaoning,,770000,1156141954
Shiyan,Shiyan,32.57,110.78,China,CN,CHN,Hubei,minor,770000,1156383921
Quetta,Quetta,30.22,67.025,Pakistan,PK,PAK,Balochistān,admin,768000,1586556108
Jincheng,Jincheng,35.5004,112.83,China,CN,CHN,Shanxi,minor,760000,1156163376
Hsinchu,Hsinchu,24.8168,120.9767,Taiwan,TW,TWN,Hsinchu,admin,750000,1158276420
Changhua,Changhua,24.0734,120.5134,Taiwan,TW,TWN,Changhua,admin,750000,1158439005
Kolhāpur,Kolhapur,16.7,74.22,India,IN,IND,Mahārāshtra,,750000,1356110593
Hegang,Hegang,47.4,130.37,China,CN,CHN,Heilongjiang,minor,743307,1156541759
Naga City,Naga City,13.6192,123.1814,Philippines,PH,PHL,Naga,admin,741635,1608775993
Ansan,Ansan,37.3481,126.8595,"Korea, South",KR,KOR,Gyeonggi,,739493,1410585171
Amrāvati,Amravati,20.95,77.77,India,IN,IND,Mahārāshtra,,734451,1356462099
Denpasar,Denpasar,-8.65,115.22,Indonesia,ID,IDN,Bali,admin,732344,1360848527
Beihai,Beihai,21.4804,109.1,China,CN,CHN,Guangxi,,728978,1156421449
Shaoguan,Shaoguan,24.8,113.58,China,CN,CHN,Guangdong,minor,720266,1156617066
Kumamoto,Kumamoto,32.8009,130.7006,Japan,JP,JPN,Kumamoto,admin,718232,1392106283
Xinpu,Xinpu,34.6004,119.17,China,CN,CHN,Jiangsu,minor,715600,1156035381
Dehra Dūn,Dehra Dun,30.3204,78.05,India,IN,IND,Uttarakhand,admin,714223,1356970407
Jeonju,Jeonju,35.8314,127.1404,"Korea, South",KR,KOR,Jeonbuk,minor,711424,1410494847
Qingyuan,Qingyuan,23.7004,113.0301,China,CN,CHN,Guangdong,minor,706717,1156135890
Changzhi,Changzhi,36.1839,113.1053,China,CN,CHN,Shanxi,minor,706000,1156057944
Shizuoka,Shizuoka,34.9858,138.3854,Japan,JP,JPN,Shizuoka,admin,701561,1392235505
Mālegaon,Malegaon,20.5604,74.525,India,IN,IND,Mahārāshtra,,690844,1356113556
Huangshi,Huangshi,30.22,115.1,China,CN,CHN,Hubei,minor,688090,1156234290
Nellore,Nellore,14.44,79.9899,India,IN,IND,Andhra Pradesh,,678004,1356280972
Gorakhpur,Gorakhpur,26.7504,83.38,India,IN,IND,Uttar Pradesh,,674246,1356190221
Ipoh,Ipoh,4.6,101.065,Malaysia,MY,MYS,Perak,admin,673318,1458423505
Utsunomiya,Utsunomiya,36.55,139.87,Japan,JP,JPN,Tochigi,admin,667752,1392506125
Puyang Chengguanzhen,Puyang Chengguanzhen,35.7004,114.98,China,CN,CHN,Henan,minor,666322,1156103317
Shimoga,Shimoga,13.9304,75.56,India,IN,IND,Karnātaka,,654055,1356016156
Biên Hòa,Bien Hoa,10.97,106.8301,Vietnam,VN,VNM,Đồng Nai,admin,652646,1704863046
Xiping,Xiping,25.6005,103.8166,China,CN,CHN,Yunnan,minor,652604,1156207794
Tiruppūr,Tiruppur,11.0804,77.33,India,IN,IND,Tamil Nādu ,,650000,1356539761
Yogyakarta,Yogyakarta,-7.78,110.375,Indonesia,ID,IDN,Yogyakarta,admin,636660,1360384833
Zhuozhou,Zhuozhou,39.5401,115.79,China,CN,CHN,Hebei,,628000,1156045160
Raurkela,Raurkela,22.2304,84.83,India,IN,IND,Odisha,,625831,1356096816
Nānded,Nanded,19.17,77.3,India,IN,IND,Mahārāshtra,,623708,1356722310
Bannu,Bannu,32.989,70.5986,Pakistan,PK,PAK,Khyber Pakhtunkhwa,minor,622419,1586858934
Changping,Changping,40.2248,116.1944,China,CN,CHN,Beijing,,614821,1156166828
Palu,Palu,-0.907,119.833,Indonesia,ID,IDN,Sulawesi Tengah,admin,612445,1360518272
Taizhou,Taizhou,32.4904,119.9,China,CN,CHN,Jiangsu,minor,612356,1156119229
Xingtai,Xingtai,37.05,114.5,China,CN,CHN,Hebei,,611739,1156294952
Belgaum,Belgaum,15.865,74.505,India,IN,IND,Karnātaka,,608756,1356390535
Pontianak,Pontianak,-0.03,109.32,Indonesia,ID,IDN,Kalimantan Barat,admin,607311,1360992394
Banjarmasin,Banjarmasin,-3.33,114.5801,Indonesia,ID,IDN,Kalimantan Selatan,admin,603576,1360685223
Sāngli,Sangli,16.8604,74.575,India,IN,IND,Mahārāshtra,,601214,1356921375
Chānda,Chanda,19.97,79.3,India,IN,IND,Mahārāshtra,,595118,1356592607
Nagano,Nagano,36.65,138.17,Japan,JP,JPN,Nagano,admin,594311,1392603439
Vinh,Vinh,18.7,105.68,Vietnam,VN,VNM,Nghệ An,admin,593645,1704960059
Samarinda,Samarinda,-0.5,117.15,Indonesia,ID,IDN,Kalimantan Timur,admin,592228,1360684979
Ajmer,Ajmer,26.45,74.64,India,IN,IND,Rājasthān,,589985,1356058258
Anqing,Anqing,30.5,117.05,China,CN,CHN,Anhui,minor,580497,1156238875
Cuttack,Cuttack,20.47,85.8899,India,IN,IND,Odisha,,580000,1356872061
Hachiōji,Hachioji,35.6577,139.3261,Japan,JP,JPN,Tōkyō,,579399,1392172935
Bīkaner,Bikaner,28.0304,73.3299,India,IN,IND,Rājasthān,,576015,1356026593
Shihezi,Shihezi,44.3,86.0299,China,CN,CHN,Xinjiang,minor,573182,1156232270
Kuching,Kuching,1.53,110.33,Malaysia,MY,MYS,Sarawak,admin,570407,1458462262
Shuozhou,Shuozhou,39.3004,112.42,China,CN,CHN,Shanxi,minor,570000,1156227167
Niigata,Niigata,37.92,139.04,Japan,JP,JPN,Niigata,admin,569797,1392913753
Binjai,Binjai,3.6204,98.5001,Indonesia,ID,IDN,Sumatera Utara,,564979,1360884608
Wusong,Wusong,30.9504,117.78,China,CN,CHN,Anhui,minor,562832,1156264408
Weihai,Weihai,37.5,122.1,China,CN,CHN,Shandong,minor,560255,1156473300
Siping,Siping,43.17,124.33,China,CN,CHN,Jilin,,555609,1156063295
Kagoshima,Kagoshima,31.586,130.5611,Japan,JP,JPN,Kagoshima,admin,555352,1392120675
Surakarta,Surakarta,-7.565,110.825,Indonesia,ID,IDN,Jawa Tengah,,555308,1360853933
Bhāvnagar,Bhavnagar,21.7784,72.13,India,IN,IND,Gujarāt,,554978,1356982375
Bahawalpur,Bahawalpur,29.39,71.675,Pakistan,PK,PAK,Punjab,minor,552607,1586038700
Kanazawa,Kanazawa,36.56,136.64,Japan,JP,JPN,Ishikawa,admin,551249,1392684679
Jiujiang,Jiujiang,29.73,115.98,China,CN,CHN,Jiangxi,minor,545616,1156206041
Hisar,Hisar,29.17,75.725,India,IN,IND,Haryāna,,544829,1356004790
Kashgar,Kashgar,39.4763,75.9699,China,CN,CHN,Xinjiang,minor,543914,1156113193
Bilāspur,Bilaspur,22.0904,82.16,India,IN,IND,Chhattīsgarh,,543454,1356820491
Sargodha,Sargodha,32.0854,72.675,Pakistan,PK,PAK,Punjab,minor,542603,1586696588
Tinnevelly,Tinnevelly,8.7304,77.69,India,IN,IND,Tamil Nādu ,,542200,1356037155
Yangzhou,Yangzhou,32.4,119.43,China,CN,CHN,Jiangsu,,539715,1156818601
Ōtsu,Otsu,35.0064,135.8674,Japan,JP,JPN,Shiga,admin,536976,1392164106
Linxia Chengguanzhen,Linxia Chengguanzhen,35.6,103.2,China,CN,CHN,Gansu,minor,534555,1156043522
Matsuyama,Matsuyama,33.8455,132.7658,Japan,JP,JPN,Ehime,admin,533541,1392220893
Jiangmen,Jiangmen,22.5804,113.08,China,CN,CHN,Guangdong,minor,532419,1156105613
Guntūr,Guntur,16.33,80.45,India,IN,IND,Andhra Pradesh,,530577,1356374905
Cangzhou,Cangzhou,38.3204,116.87,China,CN,CHN,Hebei,,527681,1156698069
Kota Kinabalu,Kota Kinabalu,5.98,116.11,Malaysia,MY,MYS,Sabah,admin,527671,1458441859
Ji’an,Ji'an,27.1304,115,China,CN,CHN,Jiangxi,minor,520248,1156278215
Shashi,Shashi,30.32,112.23,China,CN,CHN,Hubei,,520000,1156254380
Shiliguri,Shiliguri,26.7204,88.455,India,IN,IND,West Bengal,,515574,1356724691
Banda Aceh,Banda Aceh,5.55,95.32,Indonesia,ID,IDN,Aceh,admin,513698,1360353144
Ujjain,Ujjain,23.1904,75.79,India,IN,IND,Madhya Pradesh,,513350,1356050735
Bukittinggi,Bukittinggi,-0.3031,100.3615,Indonesia,ID,IDN,Sumatera Barat,,506964,1360552560
Liaoyuan,Liaoyuan,42.9,125.13,China,CN,CHN,Jilin,,506548,1156249772
Kota Bharu,Kota Bharu,6.12,102.23,Malaysia,MY,MYS,Kelantan,admin,505583,1458150101
Davangere,Davangere,14.47,75.92,India,IN,IND,Karnātaka,,503564,1356445061
Pingtung,Pingtung,22.6817,120.4817,Taiwan,TW,TWN,Pingtung,admin,503530,1158209038
Akola,Akola,20.71,77.01,India,IN,IND,Mahārāshtra,,503502,1356089496
Taoyuan District,Taoyuan District,24.9889,121.3111,Taiwan,TW,TWN,Taoyuan,admin,500000,1158127875
Keelung,Keelung,25.1333,121.7333,Taiwan,TW,TWN,Keelung,admin,500000,1158820647
Pasuruan,Pasuruan,-7.6296,112.9,Indonesia,ID,IDN,Jawa Timur,,500000,1360084806
Chiayi,Chiayi,23.4755,120.4351,Taiwan,TW,TWN,Chiayi,admin,500000,1158867217
Thái Nguyên,Thai Nguyen,21.6,105.83,Vietnam,VN,VNM,Thái Nguyên,admin,500000,1704613715
Shuangyashan,Shuangyashan,46.6704,131.35,China,CN,CHN,Heilongjiang,,500000,1156245904
Tsu,Tsu,34.7171,136.5167,Japan,JP,JPN,Mie,admin,500000,1392082102
Mataram,Mataram,-8.5795,116.135,Indonesia,ID,IDN,Nusa Tenggara Barat,admin,499409,1360021952
Wuwei,Wuwei,37.928,102.641,China,CN,CHN,Gansu,minor,493092,1156760291
Yanji,Yanji,42.8823,129.5128,China,CN,CHN,Jilin,,488740,1156405468
Sahāranpur,Saharanpur,29.97,77.55,India,IN,IND,Uttar Pradesh,,484873,1356139858
Gulbarga,Gulbarga,17.35,76.82,India,IN,IND,Karnātaka,,483615,1356091187
Bhātpāra,Bhatpara,22.8504,88.52,India,IN,IND,West Bengal,,483129,1356022456
Shah Alam,Shah Alam,3.0667,101.55,Malaysia,MY,MYS,Selangor,admin,481654,1458194263
Zhaoqing,Zhaoqing,23.0504,112.45,China,CN,CHN,Guangdong,minor,480000,1156170144
Dhūlia,Dhulia,20.9,74.77,India,IN,IND,Mahārāshtra,,479073,1356224695
Sialkot City,Sialkot City,32.52,74.56,Pakistan,PK,PAK,Punjab,minor,477396,1586141444
Jiaojiangcun,Jiaojiangcun,28.6804,121.45,China,CN,CHN,Zhejiang,,471500,1156812073
Chaoyang,Chaoyang,41.5504,120.42,China,CN,CHN,Liaoning,,470296,1156706927
Udaipur,Udaipur,24.6,73.73,India,IN,IND,Rājasthān,,469737,1356266094
Iligan,Iligan,8.1712,124.2154,Philippines,PH,PHL,Iligan,admin,464599,1608000268
Dadukou,Dadukou,26.55,101.73,China,CN,CHN,Sichuan,minor,461513,1156901342
Jingdezhen,Jingdezhen,29.2704,117.18,China,CN,CHN,Jiangxi,minor,457298,1156038165
Jambi,Jambi,-1.59,103.61,Indonesia,ID,IDN,Jambi,admin,457090,1360645580
Hengshui,Hengshui,37.72,115.7,China,CN,CHN,Hebei,,456356,1156803028
Manado,Manado,1.48,124.85,Indonesia,ID,IDN,Sulawesi Utara,admin,451893,1360771278
Taihecun,Taihecun,45.8,130.85,China,CN,CHN,Heilongjiang,,450617,1156875484
Chengde,Chengde,40.9604,117.93,China,CN,CHN,Hebei,,449325,1156197800
Jiangguanchi,Jiangguanchi,34.0204,113.82,China,CN,CHN,Henan,minor,449258,1156235735
Ōita,Oita,33.2432,131.5979,Japan,JP,JPN,Ōita,admin,448907,1392081193
Baguio City,Baguio City,16.43,120.5699,Philippines,PH,PHL,Baguio,admin,447824,1608164766
Balikpapan,Balikpapan,-1.25,116.83,Indonesia,ID,IDN,Kalimantan Timur,,445905,1360500922
Bellary,Bellary,15.15,76.915,India,IN,IND,Karnātaka,,445388,1356209152
Tokushima,Tokushima,34.0674,134.5525,Japan,JP,JPN,Tokushima,admin,443760,1392795984
Wuzhou,Wuzhou,23.48,111.32,China,CN,CHN,Guangxi,minor,442315,1156620133
Wakayama,Wakayama,34.2231,135.1677,Japan,JP,JPN,Wakayama,admin,440006,1392907296
Mawlamyine,Mawlamyine,16.5004,97.67,Burma,MM,MMR,Mon State,admin,438861,1104530702
Guangyuan,Guangyuan,32.43,105.87,China,CN,CHN,Sichuan,,437435,1156084562
Tuticorin,Tuticorin,8.82,78.13,India,IN,IND,Tamil Nādu ,,436094,1356751023
Nagasaki,Nagasaki,32.765,129.885,Japan,JP,JPN,Nagasaki,admin,435455,1392162566
Pohang,Pohang,36.0209,129.3715,"Korea, South",KR,KOR,Gyeongbuk,minor,435266,1410983252
Bengkulu,Bengkulu,-3.8,102.27,Indonesia,ID,IDN,Bengkulu,admin,426673,1360191448
Kurnool,Kurnool,15.83,78.03,India,IN,IND,Andhra Pradesh,,424920,1356058372
Chaozhou,Chaozhou,23.68,116.63,China,CN,CHN,Guangdong,minor,424787,1156549118
Batangas,Batangas,13.7817,121.0217,Philippines,PH,PHL,Batangas,admin,424508,1608417616
Gaya,Gaya,24.8,85,India,IN,IND,Bihār,,423692,1356045727
Sukkur,Sukkur,27.7136,68.8486,Pakistan,PK,PAK,Sindh,minor,417767,1586383591
Luohe,Luohe,33.57,114.03,China,CN,CHN,Henan,minor,417356,1156330876
Meizhou,Meizhou,24.3005,116.12,China,CN,CHN,Guangdong,minor,414930,1156361028
Gifu,Gifu,35.4231,136.7628,Japan,JP,JPN,Gifu,admin,412895,1392097787
Nha Trang,Nha Trang,12.25,109.17,Vietnam,VN,VNM,Khánh Hòa,admin,411556,1704497901
Zhangjiakou Shi Xuanhua Qu,Zhangjiakou Shi Xuanhua Qu,40.5944,115.0243,China,CN,CHN,Hebei,minor,409745,1156240430
Jeju,Jeju,33.5101,126.5219,"Korea, South",KR,KOR,Jeju,admin,408364,1410364424
Ghulja,Ghulja,43.9,81.35,China,CN,CHN,Xinjiang,minor,403489,1156064979
Pasay City,Pasay City,14.5504,121,Philippines,PH,PHL,Pasay,admin,403064,1608448280
Sīkar,Sikar,27.6104,75.14,India,IN,IND,Rājasthān,,400000,1356163729
Jiangjiafan,Jiangjiafan,31.0304,112.1,China,CN,CHN,Hubei,,400000,1156352568
Tumkūr,Tumkur,13.33,77.1,India,IN,IND,Karnātaka,,399606,1356033724
Chiang Mai,Chiang Mai,18.8,98.98,Thailand,TH,THA,Chiang Mai,admin,397211,1764662886
Yuxi,Yuxi,24.38,102.57,China,CN,CHN,Yunnan,minor,396325,1156682309
Quilon,Quilon,8.9004,76.57,India,IN,IND,Kerala,,394163,1356304110
Sandakan,Sandakan,5.843,118.108,Malaysia,MY,MYS,Sabah,,392288,1458405180
Ahmadnagar,Ahmadnagar,19.1104,74.75,India,IN,IND,Mahārāshtra,,391760,1356972679
Bhīlwāra,Bhilwara,25.3504,74.635,India,IN,IND,Rājasthān,,389911,1356077831
Comilla,Comilla,23.4704,91.17,Bangladesh,BD,BGD,Chittagong,,389411,1050609330
Samut Prakan,Samut Prakan,13.6069,100.6115,Thailand,TH,THA,Samut Prakan,admin,388920,1764159228
Nizāmābād,Nizamabad,18.6704,78.1,India,IN,IND,Telangana,,388505,1356242168
Iloilo,Iloilo,10.705,122.545,Philippines,PH,PHL,Iloilo,admin,387681,1608875987
Baicheng,Baicheng,45.62,122.82,China,CN,CHN,Jilin,minor,386861,1156435764
Xichang,Xichang,27.88,102.3,China,CN,CHN,Sichuan,minor,379993,1156116456
Dezhou,Dezhou,37.4504,116.3,China,CN,CHN,Shandong,minor,379555,1156524080
Parbhani,Parbhani,19.2704,76.76,India,IN,IND,Mahārāshtra,,378326,1356632842
Zhoukou,Zhoukou,33.6304,114.63,China,CN,CHN,Henan,minor,377061,1156272098
Putian,Putian,25.4303,119.02,China,CN,CHN,Fujian,minor,376558,1156811601
Shillong,Shillong,25.5705,91.88,India,IN,IND,Meghālaya,admin,375527,1356533936
Lātūr,Latur,18.4004,76.57,India,IN,IND,Mahārāshtra,,374394,1356918265
Shache,Shache,38.4261,77.25,China,CN,CHN,Xinjiang,,373492,1156278934
Seremban,Seremban,2.7105,101.94,Malaysia,MY,MYS,Negeri Sembilan,admin,372917,1458051507
Quzhou,Quzhou,28.9704,118.87,China,CN,CHN,Zhejiang,,370000,1156180376
Rājapālaiyam,Rajapalaiyam,9.4204,77.58,India,IN,IND,Tamil Nādu ,,369991,1356110350
Longyan,Longyan,25.1804,117.03,China,CN,CHN,Fujian,minor,367896,1156012979
Kuantan,Kuantan,3.83,103.32,Malaysia,MY,MYS,Pahang,admin,366229,1458763489
Gorontalo,Gorontalo,0.55,123.07,Indonesia,ID,IDN,Gorontalo,admin,365497,1360408580
Larkana,Larkana,27.5618,68.2068,Pakistan,PK,PAK,Sindh,minor,364033,1586678302
Sanya,Sanya,18.2591,109.504,China,CN,CHN,Hainan,minor,362689,1156373900
Bhāgalpur,Bhagalpur,25.23,86.98,India,IN,IND,Bihār,,361548,1356760990
Shekhupura,Shekhupura,31.72,73.99,Pakistan,PK,PAK,Punjab,minor,361303,1586291726
Sungai Petani,Sungai Petani,5.6497,100.4793,Malaysia,MY,MYS,Kedah,,358499,1458639918
Iwaki,Iwaki,37.0553,140.89,Japan,JP,JPN,Fukushima,,357309,1392158088
Fuyu,Fuyu,45.1804,124.82,China,CN,CHN,Jilin,,356905,1156595629
Cà Mau,Ca Mau,9.1774,105.15,Vietnam,VN,VNM,Cà Mau,admin,356636,1704320474
Asahikawa,Asahikawa,43.755,142.38,Japan,JP,JPN,Hokkaidō,,356612,1392380358
Mirpur Khas,Mirpur Khas,25.5318,69.0118,Pakistan,PK,PAK,Sindh,minor,356435,1586156251
Wafangdian,Wafangdian,39.6259,121.996,China,CN,CHN,Liaoning,,355844,1156476417
Ambon,Ambon,-3.7167,128.2,Indonesia,ID,IDN,Maluku,admin,355596,1360756802
Hongzhai,Hongzhai,35.0476,104.6394,China,CN,CHN,Gansu,,355037,1156905289
Mito,Mito,36.3704,140.48,Japan,JP,JPN,Ibaraki,admin,353892,1392665227
Rahimyar Khan,Rahimyar Khan,28.4202,70.2952,Pakistan,PK,PAK,Punjab,,353203,1586136399
Hualien,Hualien,23.9837,121.6,Taiwan,TW,TWN,Hualien,admin,350468,1158174293
Kuala Terengganu,Kuala Terengganu,5.3304,103.12,Malaysia,MY,MYS,Terengganu,admin,350210,1458475563
Long Xuyên,Long Xuyen,10.3804,105.42,Vietnam,VN,VNM,An Giang,admin,350000,1704453892
Việt Trì,Viet Tri,21.3304,105.43,Vietnam,VN,VNM,Phú Thọ,admin,350000,1704332956
Yingmen,Yingmen,39.83,97.73,China,CN,CHN,Gansu,,350000,1156386711
Buôn Ma Thuột,Buon Ma Thuot,12.667,108.05,Vietnam,VN,VNM,Đắk Lắk,admin,349945,1704542086
Muzaffarnagar,Muzaffarnagar,29.485,77.695,India,IN,IND,Uttar Pradesh,,349706,1356592356
Maebashi,Maebashi,36.3927,139.0727,Japan,JP,JPN,Gunma,admin,344871,1392333295
Kohat,Kohat,33.6027,71.4327,Pakistan,PK,PAK,Khyber Pakhtunkhwa,minor,343027,1586349992
Yeosu,Yeosu,34.7368,127.7458,"Korea, South",KR,KOR,Jeonnam,minor,341994,1410002025
Jhang City,Jhang City,31.2804,72.325,Pakistan,PK,PAK,Punjab,minor,341210,1586288677
Pematangsiantar,Pematangsiantar,2.9614,99.0615,Indonesia,ID,IDN,Sumatera Utara,,341200,1360769496
Tamuramachi-moriyama,Tamuramachi-moriyama,37.41,140.38,Japan,JP,JPN,Fukushima,,340560,1392675180
Aksu,Aksu,41.15,80.25,China,CN,CHN,Xinjiang,minor,340020,1156436913
Yucheng,Yucheng,29.9804,103.08,China,CN,CHN,Sichuan,minor,340000,1156817119
Tieling,Tieling,42.3004,123.82,China,CN,CHN,Liaoning,,340000,1156089994
Kawagoe,Kawagoe,35.9177,139.4911,Japan,JP,JPN,Saitama,,337931,1392825080
Jitpur,Jitpur,27.6666,85.3333,Nepal,NP,NPL,,,337785,1524593184
Phan Thiết,Phan Thiet,10.9337,108.1001,Vietnam,VN,VNM,Bình Thuận,admin,336846,1704221456
Alor Setar,Alor Setar,6.1133,100.3729,Malaysia,MY,MYS,Kedah,admin,336475,1458273978
Kōchi,Kochi,33.5624,133.5375,Japan,JP,JPN,Kōchi,admin,335570,1392086071
Nakhon Ratchasima,Nakhon Ratchasima,15,102.1,Thailand,TH,THA,Nakhon Ratchasima,admin,334984,1764752197
Takamatsu,Takamatsu,34.3447,134.0448,Japan,JP,JPN,Kagawa,admin,334223,1392427161
Muzaffarpur,Muzaffarpur,26.1204,85.3799,India,IN,IND,Bihār,,333200,1356897425
Toyama,Toyama,36.7,137.23,Japan,JP,JPN,Toyama,admin,332812,1392000560
Hangu,Hangu,39.232,117.777,China,CN,CHN,Tianjin,,332793,1156202457
Heyuan,Heyuan,23.7304,114.68,China,CN,CHN,Guangdong,minor,330961,1156665165
Mathura,Mathura,27.5,77.67,India,IN,IND,Uttar Pradesh,,330511,1356066081
Mymensingh,Mymensingh,24.7504,90.38,Bangladesh,BD,BGD,Mymensingh,admin,330126,1050399881
Baishan,Baishan,41.9,126.43,China,CN,CHN,Jilin,minor,330000,1156960624
Patiāla,Patiala,30.3204,76.385,India,IN,IND,Punjab,,329224,1356458416
Saugor,Saugor,23.8504,78.75,India,IN,IND,Madhya Pradesh,,328240,1356781800
Brahmapur,Brahmapur,19.32,84.8,India,IN,IND,Odisha,,324726,1356569354
Miyazaki,Miyazaki,31.9182,131.4184,Japan,JP,JPN,Miyazaki,admin,324384,1392216224
Chenzhou,Chenzhou,25.8004,113.0301,China,CN,CHN,Hunan,minor,322997,1156291915
Shāhjānpur,Shahjanpur,27.8804,79.905,India,IN,IND,Uttar Pradesh,,320434,1356415439
Legazpi City,Legazpi City,13.17,123.75,Philippines,PH,PHL,Albay,admin,320081,1608693683
Akita,Akita,39.71,140.09,Japan,JP,JPN,Akita,admin,320069,1392129688
Hat Yai,Hat Yai,6.9964,100.4714,Thailand,TH,THA,Songkhla,minor,317954,1764161022
Rohtak,Rohtak,28.9,76.58,India,IN,IND,Haryāna,,317245,1356162915
Angeles City,Angeles City,15.1451,120.5451,Philippines,PH,PHL,Angeles,admin,314493,1608036027
Ningde,Ningde,26.6804,119.5301,China,CN,CHN,Fujian,minor,314077,1156909802
Sambalpur,Sambalpur,21.4704,83.9701,India,IN,IND,Odisha,,310852,1356772339
Ratlām,Ratlam,23.3504,75.03,India,IN,IND,Madhya Pradesh,,307229,1356241663
Tawau,Tawau,4.271,117.896,Malaysia,MY,MYS,Sabah,,306462,1458745722
Fīrozābād,Firozabad,27.15,78.3949,India,IN,IND,Uttar Pradesh,,306409,1356031978
Rājahmundry,Rajahmundry,17.0303,81.79,India,IN,IND,Andhra Pradesh,,304804,1356831716
Olongapo,Olongapo,14.8296,120.2828,Philippines,PH,PHL,Olongapo,admin,304388,1608001640
Wenlan,Wenlan,23.3619,103.4061,China,CN,CHN,Yunnan,minor,303341,1156385754
Hakodate,Hakodate,41.795,140.74,Japan,JP,JPN,Hokkaidō,,302984,1392708558
Barddhamān,Barddhaman,23.2504,87.865,India,IN,IND,West Bengal,,301725,1356062166
Gujrat,Gujrat,32.58,74.08,Pakistan,PK,PAK,Punjab,minor,301506,1586006990
Kumul,Kumul,42.827,93.515,China,CN,CHN,Xinjiang,minor,300848,1156131545
Mardan,Mardan,34.2,72.04,Pakistan,PK,PAK,Khyber Pakhtunkhwa,minor,300424,1586001546
Bīdar,Bidar,17.9229,77.5175,India,IN,IND,Karnātaka,,300136,1356933453
Rạch Giá,Rach Gia,10.0154,105.0914,Vietnam,VN,VNM,Kiến Giang,admin,300000,1704872008
Sóc Trăng,Soc Trang,9.6037,105.98,Vietnam,VN,VNM,Sóc Trăng,admin,300000,1704758756
Jember,Jember,-8.1727,113.6873,Indonesia,ID,IDN,Jawa Timur,minor,298585,1360316553
Aomori,Aomori,40.825,140.71,Japan,JP,JPN,Aomori,admin,298394,1392083898
Rāmpur,Rampur,28.8154,79.025,India,IN,IND,Uttar Pradesh,,296418,1356666569
Morioka,Morioka,39.72,141.13,Japan,JP,JPN,Iwate,admin,295172,1392981957
Fukushima,Fukushima,37.74,140.47,Japan,JP,JPN,Fukushima,admin,294237,1392570027
Kākināda,Kakinada,16.9675,82.2375,India,IN,IND,Andhra Pradesh,,292923,1356573609
Pānīpat,Panipat,29.4004,76.97,India,IN,IND,Haryāna,,292808,1356526780
Khammam,Khammam,17.2804,80.1601,India,IN,IND,Telangana,,290839,1356007170
Kasur,Kasur,31.1254,74.455,Pakistan,PK,PAK,Punjab,minor,290643,1586858135
Hong’an,Hong'an,47.21,123.61,China,CN,CHN,Heilongjiang,minor,289999,1156999688
Bhuj,Bhuj,23.2504,69.81,India,IN,IND,Gujarāt,,289429,1356806356
Huizhou,Huizhou,23.08,114.4,China,CN,CHN,Guangdong,minor,289201,1156203268
Karīmnagar,Karimnagar,18.4604,79.11,India,IN,IND,Telangana,,288251,1356578937
Tirupati,Tirupati,13.6504,79.42,India,IN,IND,Andhra Pradesh,,287035,1356362995
Hospet,Hospet,15.2804,76.375,India,IN,IND,Karnātaka,,286007,1356241463
Rangpur,Rangpur,25.75,89.28,Bangladesh,BD,BGD,Rangpur,admin,285564,1050667437
Mandya,Mandya,12.5704,76.92,India,IN,IND,Karnātaka,,285034,1356039212
Bago,Bago,17.32,96.515,Burma,MM,MMR,Bago,admin,284318,1104027443
Iksan,Iksan,35.941,126.9454,"Korea, South",KR,KOR,Jeonbuk,,283501,1410134391
Alwar,Alwar,27.5454,76.6049,India,IN,IND,Rājasthān,,283228,1356570855
Cadiz,Cadiz,10.9587,123.3086,Philippines,PH,PHL,Negros Occidental,,283157,1608224037
Aizawl,Aizawl,23.7104,92.72,India,IN,IND,Mizoram,admin,283021,1356342768
Kupang,Kupang,-10.1787,123.583,Indonesia,ID,IDN,Nusa Tenggara Timur,admin,282396,1360696757
Tongchuanshi,Tongchuanshi,35.08,109.03,China,CN,CHN,Shaanxi,,282258,1156606433
Jining,Jining,41.03,113.08,China,CN,CHN,Inner Mongolia,,281716,1156261326
Tacloban,Tacloban,11.2504,125,Philippines,PH,PHL,Tacloban,admin,280006,1608710592
Xinzhou,Xinzhou,38.4104,112.72,China,CN,CHN,Shanxi,minor,279607,1156617534
Cotabato,Cotabato,7.2169,124.2484,Philippines,PH,PHL,Cotabato,admin,279519,1608753128
Sukabumi,Sukabumi,-6.9096,106.9,Indonesia,ID,IDN,Jawa Barat,,276414,1360447543
Jinshi,Jinshi,29.6321,111.8517,China,CN,CHN,Hunan,minor,274000,1156062960
Ubon Ratchathani,Ubon Ratchathani,15.25,104.83,Thailand,TH,THA,Ubon Ratchathani,admin,273893,1764611048
Majene,Majene,-3.5336,118.966,Indonesia,ID,IDN,Sulawesi Barat,minor,272377,1360498576
Yamagata,Yamagata,38.2705,140.32,Japan,JP,JPN,Yamagata,admin,272209,1392300081
Pekalongan,Pekalongan,-6.8796,109.67,Indonesia,ID,IDN,Jawa Tengah,,272000,1360039434
Tasikmalaya,Tasikmalaya,-7.3254,108.2147,Indonesia,ID,IDN,Jawa Barat,,271143,1360027771
Bijāpur,Bijapur,16.8354,75.71,India,IN,IND,Karnātaka,,271064,1356499139
Mokpo,Mokpo,34.8068,126.3958,"Korea, South",KR,KOR,Jeonnam,minor,268402,1410279439
Tebingtinggi,Tebingtinggi,3.3304,99.13,Indonesia,ID,IDN,Sumatera Utara,,268043,1360386781
Padangsidempuan,Padangsidempuan,1.3887,99.2734,Indonesia,ID,IDN,Sumatera Utara,,266882,1360506609
Myeik,Myeik,12.4541,98.6115,Burma,MM,MMR,Taninthayi,,266720,1104715655
Imphal,Imphal,24.8,93.95,India,IN,IND,Manipur,admin,264986,1356107172
Hotan,Hotan,37.0997,79.9269,China,CN,CHN,Xinjiang,minor,261730,1156111844
Zhuanghe,Zhuanghe,39.6823,122.9619,China,CN,CHN,Liaoning,,261510,1156410076
Nonthaburi,Nonthaburi,13.8337,100.4833,Thailand,TH,THA,Nonthaburi,admin,258550,1764667935
Etāwah,Etawah,26.7855,79.015,India,IN,IND,Uttar Pradesh,,257448,1356241312
Ấp Đa Lợi,Ap Da Loi,11.9304,108.42,Vietnam,VN,VNM,Lâm Đồng,,256019,1704613422
Rāichūr,Raichur,16.2104,77.355,India,IN,IND,Karnātaka,,255240,1356217280
Turpan,Turpan,42.9354,89.165,China,CN,CHN,Xinjiang,minor,254900,1156573684
Chuxiong,Chuxiong,25.0364,101.5456,China,CN,CHN,Yunnan,,254370,1156225985
Cirebon,Cirebon,-6.7333,108.5666,Indonesia,ID,IDN,Jawa Barat,,254298,1360011375
Pathānkot,Pathankot,32.2703,75.72,India,IN,IND,Punjab,,253987,1356878237
Chīrāla,Chirala,15.8604,80.34,India,IN,IND,Andhra Pradesh,,253000,1356100300
Suihua,Suihua,46.6304,126.98,China,CN,CHN,Heilongjiang,minor,252245,1156235493
Linhai,Linhai,28.85,121.12,China,CN,CHN,Zhejiang,,251759,1156451663
Khon Kaen,Khon Kaen,16.42,102.83,Thailand,TH,THA,Khon Kaen,admin,251056,1764003406
Sonīpat,Sonipat,29,77.02,India,IN,IND,Haryāna,,250521,1356648808
Laiyang,Laiyang,36.9684,120.7084,China,CN,CHN,Shandong,,250000,1156207330
Jaffna,Jaffna,9.675,80.005,Sri Lanka,LK,LKA,Northern,admin,250000,1144005506
Quảng Ngãi,Quang Ngai,15.1504,108.83,Vietnam,VN,VNM,Quảng Ngãi,admin,250000,1704029499
Vũng Tàu,Vung Tau,10.3554,107.085,Vietnam,VN,VNM,Bà Rịa-Vũng Tàu,admin,248767,1704581438
Fukui,Fukui,36.0704,136.22,Japan,JP,JPN,Fukui,admin,248707,1392897510
Singkawang,Singkawang,0.912,108.9655,Indonesia,ID,IDN,Kalimantan Barat,,248012,1360906363
Udon Thani,Udon Thani,17.4048,102.7893,Thailand,TH,THA,Udon Thani,admin,247231,1764676047
Mirzāpur,Mirzapur,25.1454,82.57,India,IN,IND,Uttar Pradesh,,245817,1356427908
Shinozaki,Shinozaki,33.9654,130.9454,Japan,JP,JPN,Fukuoka,,245786,1392516557
Qinzhou,Qinzhou,21.9504,108.62,China,CN,CHN,Guangxi,minor,245376,1156106602
Hebi,Hebi,35.9504,114.22,China,CN,CHN,Henan,,244662,1156114258
Thủ Dầu Một,Thu Dau Mot,10.9691,106.6527,Vietnam,VN,VNM,Bình Dương,admin,244277,1704890399
Kunsan,Kunsan,35.9818,126.716,"Korea, South",KR,KOR,Jeonbuk,,244080,1410913202
Jessore,Jessore,23.1704,89.2,Bangladesh,BD,BGD,Khulna,,243987,1050244487
Wŏnju,Wonju,37.3551,127.9396,"Korea, South",KR,KOR,Gangwon,,243387,1410782685
Nam Định,Nam Dinh,20.42,106.2,Vietnam,VN,VNM,Nam Định,admin,243186,1704906277
Hāpur,Hapur,28.7437,77.7628,India,IN,IND,Uttar Pradesh,,242920,1356820012
Ulanhot,Ulanhot,46.08,122.08,China,CN,CHN,Inner Mongolia,,241894,1156182060
Fuzhou,Fuzhou,27.9703,116.36,China,CN,CHN,Jiangxi,,241104,1156915325
San Pablo,San Pablo,14.0696,121.3226,Philippines,PH,PHL,Laguna,,240830,1608801564
Hachimanchō,Hachimancho,40.51,141.54,Japan,JP,JPN,Aomori,,239046,1392220933
Sato,Sato,33.1631,129.7177,Japan,JP,JPN,Nagasaki,,237444,1392043131
Taiping,Taiping,4.865,100.72,Malaysia,MY,MYS,Perak,,237095,1458446120
Pathein,Pathein,16.7704,94.75,Burma,MM,MMR,Ayeyawady,admin,237089,1104832430
Tegal,Tegal,-6.8696,109.12,Indonesia,ID,IDN,Jawa Tengah,,237084,1360035814
Yidu,Yidu,30.3004,111.5,China,CN,CHN,Hubei,,237042,1156230664
Sylhet,Sylhet,24.9036,91.8736,Bangladesh,BD,BGD,Sylhet,admin,237000,1050646703
Dera Ghazi Khan,Dera Ghazi Khan,30.0604,70.6351,Pakistan,PK,PAK,Punjab,minor,236093,1586002238
Sahiwal,Sahiwal,30.6717,73.1118,Pakistan,PK,PAK,Punjab,minor,235695,1586672083
Kediri,Kediri,-7.7896,112,Indonesia,ID,IDN,Jawa Timur,,235143,1360498846
Porbandar,Porbandar,21.67,69.67,India,IN,IND,Gujarāt,,234684,1356634492
Singaraja,Singaraja,-8.1152,115.0944,Indonesia,ID,IDN,Bali,minor,234468,1360426282
Nakhon Si Thammarat,Nakhon Si Thammarat,8.4,99.97,Thailand,TH,THA,Nakhon Si Thammarat,admin,232335,1764409111
Heṭauḍā,Hetauda,27.4167,85.0334,Nepal,NP,NPL,,admin,232334,1524551914
Saidpur,Saidpur,25.8004,89,Bangladesh,BD,BGD,Rangpur,,232209,1050512022
Xiulin,Xiulin,29.7004,112.4,China,CN,CHN,Hubei,,231787,1156284109
Zhangye,Zhangye,38.93,100.45,China,CN,CHN,Gansu,minor,230728,1156180353
Nawabshah,Nawabshah,26.2454,68.4,Pakistan,PK,PAK,Sindh,minor,229504,1586294005
Bharatpur,Bharatpur,27.2504,77.5,India,IN,IND,Rājasthān,,229384,1356168278
Beipiao,Beipiao,41.81,120.76,China,CN,CHN,Liaoning,,228515,1156378599
Miri,Miri,4.3999,113.9845,Malaysia,MY,MYS,Sarawak,,228212,1458079883
Puducherry,Puducherry,11.935,79.83,India,IN,IND,Puducherry,admin,227411,1356368903
Liaocheng,Liaocheng,36.4304,115.97,China,CN,CHN,Shandong,minor,226930,1156006600
Tanjungpinang,Tanjungpinang,0.9168,104.4714,Indonesia,ID,IDN,Kepulauan Riau,admin,226666,1360990589
Chon Buri,Chon Buri,13.4004,101,Thailand,TH,THA,Chon Buri,admin,226618,1764202077
Chuncheon,Chuncheon,37.8747,127.7342,"Korea, South",KR,KOR,Gangwon,admin,226509,1410231130
Monywa,Monywa,22.105,95.15,Burma,MM,MMR,Sagaing,,226222,1104777345
Karnāl,Karnal,29.6804,76.97,India,IN,IND,Haryāna,,225049,1356145204
Bạc Liêu,Bac Lieu,9.2804,105.72,Vietnam,VN,VNM,Bạc Liêu,admin,225000,1704298745
Minamiōzuma,Minamiozuma,36.2404,137.97,Japan,JP,JPN,Nagano,,224926,1392373962
Nāgercoil,Nagercoil,8.1804,77.43,India,IN,IND,Tamil Nādu ,,224329,1356051733
Okara,Okara,30.8104,73.45,Pakistan,PK,PAK,Punjab,minor,223648,1586880900
Nārāyanganj,Narayanganj,23.6204,90.5,Bangladesh,BD,BGD,Dhaka,,223622,1050424421
Hancheng,Hancheng,35.4704,110.43,China,CN,CHN,Shaanxi,,222135,1156265838
Cabanatuan City,Cabanatuan City,15.5021,120.9617,Philippines,PH,PHL,Nueva Ecija,,220250,1608247694
Lhasa,Lhasa,29.645,91.1,China,CN,CHN,Tibet,admin,219599,1156369972
Tanjore,Tanjore,10.7704,79.15,India,IN,IND,Tamil Nādu ,,219571,1356599194
Wuhai,Wuhai,39.6647,106.8122,China,CN,CHN,Inner Mongolia,minor,218427,1156575615
Sibolga,Sibolga,1.75,98.8,Indonesia,ID,IDN,Sumatera Utara,,217312,1360021193
Gilgit,Gilgit,35.9171,74.3,Pakistan,PK,PAK,Gilgit-Baltistan,minor,216760,1586284242
Nanping,Nanping,26.6304,118.17,China,CN,CHN,Fujian,minor,213054,1156927445
Pāli,Pali,25.7904,73.3299,India,IN,IND,Rājasthān,,210103,1356212172
Thái Bình,Thai Binh,20.4503,106.333,Vietnam,VN,VNM,Thái Bình,admin,210000,1704716027
Sanming,Sanming,26.23,117.58,China,CN,CHN,Fujian,minor,209444,1156294429
Pingliang,Pingliang,35.5304,106.6801,China,CN,CHN,Gansu,minor,207256,1156216904
Laoag,Laoag,18.1988,120.5936,Philippines,PH,PHL,Ilocos Norte,admin,207048,1608043510
Korla,Korla,41.73,86.15,China,CN,CHN,Xinjiang,minor,206373,1156965620
Jiutai,Jiutai,44.1447,125.8443,China,CN,CHN,Jilin,,205399,1156061722
Puqi,Puqi,29.7204,113.88,China,CN,CHN,Hubei,,205164,1156189796
Lampang,Lampang,18.2916,99.4813,Thailand,TH,THA,Lampang,admin,204081,1764081847
Sibu,Sibu,2.303,111.843,Malaysia,MY,MYS,Sarawak,,203832,1458970454
Lianzhou,Lianzhou,24.7815,112.3825,China,CN,CHN,Guangdong,minor,203639,1156020454
Agartala,Agartala,23.8354,91.28,India,IN,IND,Tripura,admin,203264,1356148992
Ongole,Ongole,15.5604,80.05,India,IN,IND,Andhra Pradesh,,202860,1356385136
Barisāl,Barisal,22.7004,90.375,Bangladesh,BD,BGD,Barisāl,admin,202242,1050297281
Chiniot,Chiniot,31.72,72.98,Pakistan,PK,PAK,Punjab,minor,201781,1586413435
Pingzhen,Pingzhen,24.9439,121.2161,Taiwan,TW,TWN,Taoyuan,,201632,1158047789
Puri,Puri,19.8204,85.9,India,IN,IND,Odisha,,201026,1356558409
Dindigul,Dindigul,10.38,78,India,IN,IND,Tamil Nādu ,,200797,1356106153
Haldia,Haldia,22.0257,88.0583,India,IN,IND,West Bengal,,200762,1356491171
Moratuwa,Moratuwa,6.7804,79.88,Sri Lanka,LK,LKA,Western,,200000,1144324309
Pokhara,Pokhara,28.264,83.972,Nepal,NP,NPL,,admin,200000,1524416084
Zhubei,Zhubei,24.8333,121.0119,Taiwan,TW,TWN,Hsinchu,admin,200000,1158417233
Batu Pahat,Batu Pahat,1.8504,102.9333,Malaysia,MY,MYS,Johor,,199619,1458310769
Huangyan,Huangyan,28.65,121.25,China,CN,CHN,Zhejiang,,198713,1156149186
Bulandshahr,Bulandshahr,28.4104,77.8484,India,IN,IND,Uttar Pradesh,,198612,1356067648
Ashino,Ashino,42.975,144.3747,Japan,JP,JPN,Hokkaidō,,198566,1392810778
Purnea,Purnea,25.7854,87.48,India,IN,IND,Bihār,,198453,1356486511
Martapura,Martapura,-3.4135,114.8365,Indonesia,ID,IDN,Kalimantan Selatan,minor,198239,1360139854
Thanh Hóa,Thanh Hoa,19.82,105.8,Vietnam,VN,VNM,Thanh Hóa,admin,197551,1704016079
Kōfu,Kofu,35.6504,138.5833,Japan,JP,JPN,Yamanashi,admin,197540,1392307565
Proddatūr,Proddatur,14.7504,78.57,India,IN,IND,Andhra Pradesh,,197451,1356025913
Gurgaon,Gurgaon,28.45,77.02,India,IN,IND,Haryāna,,197340,1356836043
Burhānpur,Burhanpur,21.3004,76.13,India,IN,IND,Madhya Pradesh,,197233,1356857493
Kure,Kure,34.251,132.5656,Japan,JP,JPN,Hiroshima,,196991,1392991987
Ghandinagar,Ghandinagar,23.3004,72.6399,India,IN,IND,Gujarāt,admin,195891,1356140914
Naka,Naka,37.4504,138.86,Japan,JP,JPN,Niigata,,195318,1392479949
Tarakan,Tarakan,3.3,117.633,Indonesia,ID,IDN,Kalimantan Utara,,193069,1360080072
Machilīpatnam,Machilipatnam,16.2004,81.18,India,IN,IND,Andhra Pradesh,,192827,1356067784
Dunhua,Dunhua,43.3505,128.22,China,CN,CHN,Jilin,,191870,1156058709
Muar,Muar,2.0337,102.5666,Malaysia,MY,MYS,Johor,,191346,1458170112
Bhiwāni,Bhiwani,28.81,76.125,India,IN,IND,Haryāna,,190855,1356780092
Butuan,Butuan,8.9495,125.5436,Philippines,PH,PHL,Butuan,admin,190557,1608000722
Saddiqabad,Saddiqabad,28.3006,70.1302,Pakistan,PK,PAK,Punjab,,189876,1586378758
Sơn Tây,Son Tay,21.1382,105.505,Vietnam,VN,VNM,Hà Nội,minor,189547,1704714941
Đồng Hới,Dong Hoi,17.4833,106.6,Vietnam,VN,VNM,Quảng Bình,admin,189265,1704323043
Nandyāl,Nandyal,15.5204,78.48,India,IN,IND,Andhra Pradesh,,188654,1356671879
Ternate,Ternate,0.793,127.363,Indonesia,ID,IDN,Maluku Utara,,187521,1360041663
Madiun,Madiun,-7.6346,111.515,Indonesia,ID,IDN,Jawa Timur,,186099,1360921516
Tarlac City,Tarlac City,15.4838,120.5834,Philippines,PH,PHL,Tarlac,admin,183930,1608237027
Bhusāval,Bhusaval,21.02,75.83,India,IN,IND,Mahārāshtra,,183001,1356338789
Pinrang,Pinrang,-3.7857,119.6522,Indonesia,ID,IDN,Sulawesi Selatan,minor,182731,1360941841
Birāṭnagar,Biratnagar,26.4837,87.2833,Nepal,NP,NPL,,admin,182324,1524520011
Bahraigh,Bahraigh,27.6204,81.6699,India,IN,IND,Uttar Pradesh,,182218,1356833304
Tonk,Tonk,26.1505,75.79,India,IN,IND,Rājasthān,,181734,1356991408
Probolinggo,Probolinggo,-7.7496,113.15,Indonesia,ID,IDN,Jawa Timur,,181656,1360138476
Sirsa,Sirsa,29.4904,75.03,India,IN,IND,Haryāna,,181639,1356966764
Anda,Anda,46.4,125.32,China,CN,CHN,Heilongjiang,minor,181533,1156142150
Hinthada,Hinthada,17.6483,95.4679,Burma,MM,MMR,Ayeyawady,,180728,1104524588
Gangneung,Gangneung,37.7559,128.8962,"Korea, South",KR,KOR,Gangwon,minor,180611,1410450550
Tāngāil,Tangail,24.25,89.92,Bangladesh,BD,BGD,Dhaka,,180144,1050628940
Zhaodong,Zhaodong,46.0804,125.98,China,CN,CHN,Heilongjiang,minor,179980,1156601489
Phan Rang-Tháp Chàm,Phan Rang-Thap Cham,11.567,108.9833,Vietnam,VN,VNM,Ninh Thuận,admin,179773,1704094609
Vizianagaram,Vizianagaram,18.1204,83.5,India,IN,IND,Andhra Pradesh,,179358,1356212761
Sittwe,Sittwe,20.14,92.88,Burma,MM,MMR,Rakhine State,admin,179032,1104269305
Si Racha,Si Racha,13.159,100.9287,Thailand,TH,THA,Chon Buri,minor,178916,1764003327
Vellore,Vellore,12.9204,79.15,India,IN,IND,Tamil Nādu ,,177081,1356977661
Alleppey,Alleppey,9.5004,76.37,India,IN,IND,Kerala,,176783,1356293762
Letpandan,Letpandan,17.7819,95.7415,Burma,MM,MMR,Bago,,176571,1104882792
Salatiga,Salatiga,-7.3095,110.4901,Indonesia,ID,IDN,Jawa Tengah,,176000,1360433768
Baicheng,Baicheng,23.8997,106.6133,China,CN,CHN,Guangxi,minor,175282,1156981113
Yangmei,Yangmei,24.9167,121.15,Taiwan,TW,TWN,Taoyuan,,175000,1158247880
Taitung,Taitung,22.7554,121.14,Taiwan,TW,TWN,Taitung,admin,175000,1158804050
Ōbiraki,Obiraki,40.57,140.47,Japan,JP,JPN,Aomori,,174972,1392794397
Takaoka,Takaoka,42.6504,141.55,Japan,JP,JPN,Hokkaidō,,174806,1392760442
Beppuchō,Beppucho,42.9304,143.17,Japan,JP,JPN,Hokkaidō,,173890,1392712158
Shimla,Shimla,31.1,77.1666,India,IN,IND,Himāchal Pradesh,admin,173503,1356962932
Hạ Long,Ha Long,20.9604,107.1,Vietnam,VN,VNM,Quảng Ninh,admin,172915,1704379547
Lishui,Lishui,28.4504,119.9,China,CN,CHN,Zhejiang,minor,172777,1156858793
Banyuwangi,Banyuwangi,-8.195,114.3696,Indonesia,ID,IDN,Jawa Timur,minor,172424,1360008480
Weinan,Weinan,34.5004,109.5001,China,CN,CHN,Shaanxi,minor,172321,1156903687
Bade,Bade,24.9575,121.2989,Taiwan,TW,TWN,Taoyuan,,172065,1158126203
Takaoka,Takaoka,36.67,137,Japan,JP,JPN,Toyama,,170077,1392754231
Fuyang,Fuyang,32.9004,115.82,China,CN,CHN,Anhui,,170023,1156248008
Kluang,Kluang,2.0383,103.3179,Malaysia,MY,MYS,Johor,,169828,1458692921
Jayapura,Jayapura,-2.533,140.7,Indonesia,ID,IDN,Papua,admin,169341,1360517692
Medinīpur,Medinipur,22.3304,87.15,India,IN,IND,West Bengal,,169127,1356432910
Hindupur,Hindupur,13.7804,77.49,India,IN,IND,Andhra Pradesh,,168312,1356805611
Bāramūla,Baramula,34.2004,74.35,India,IN,IND,Jammu and Kashmīr,,167986,1356671176
Jamālpur,Jamalpur,24.9004,89.95,Bangladesh,BD,BGD,Mymensingh,,167900,1050233680
Ormoc,Ormoc,11.0643,124.6075,Philippines,PH,PHL,Ormoc,admin,167584,1608269612
Fatehpur,Fatehpur,25.8804,80.8,India,IN,IND,Uttar Pradesh,,166480,1356059135
Dibrugarh,Dibrugarh,27.4833,94.9,India,IN,IND,Assam,,166366,1356100193
Hà Tĩnh,Ha Tinh,18.3338,105.9,Vietnam,VN,VNM,Hà Tĩnh,admin,165396,1704544061
Kendari,Kendari,-3.9553,122.5973,Indonesia,ID,IDN,Sulawesi Tenggara,admin,165377,1360992102
Nantou,Nantou,23.9167,120.6833,Taiwan,TW,TWN,Nantou,admin,165000,1158112865
Serang,Serang,-6.11,106.1496,Indonesia,ID,IDN,Banten,admin,164767,1360329102
Sitalpur,Sitalpur,27.63,80.75,India,IN,IND,Uttar Pradesh,,164435,1356838415
Phitsanulok,Phitsanulok,16.8283,100.2729,Thailand,TH,THA,Phitsanulok,admin,164017,1764140981
Myingyan,Myingyan,21.4618,95.3914,Burma,MM,MMR,Mandalay,,163812,1104162015
Dagupan City,Dagupan City,16.0479,120.3408,Philippines,PH,PHL,Dagupan,admin,163676,1608530964
Navsāri,Navsari,20.8504,72.92,India,IN,IND,Gujarāt,,163000,1356120513
Simao,Simao,22.7807,100.9782,China,CN,CHN,Yunnan,minor,162725,1156008347
Budaun,Budaun,28.03,79.09,India,IN,IND,Uttar Pradesh,,161555,1356639213
Xiaoganzhan,Xiaoganzhan,30.9204,113.9,China,CN,CHN,Hubei,,160437,1156002290
Taunggyi,Taunggyi,20.782,97.038,Burma,MM,MMR,Shan State,admin,160115,1104364374
Pagadian,Pagadian,7.853,123.507,Philippines,PH,PHL,Zamboanga del Sur,admin,159590,1608329397
Cuddalore,Cuddalore,11.7204,79.77,India,IN,IND,Tamil Nādu ,,158569,1356544008
Harīpur,Haripur,31.52,75.98,India,IN,IND,Punjab,,158142,1356141115
Surat Thani,Surat Thani,9.1501,99.3401,Thailand,TH,THA,Surat Thani,admin,157627,1764338230
Puerto Princesa,Puerto Princesa,9.7543,118.7444,Philippines,PH,PHL,Puerto Princesa,admin,157144,1608455700
Matsue,Matsue,35.467,133.0666,Japan,JP,JPN,Shimane,admin,156811,1392692238
Dali,Dali,25.7,100.18,China,CN,CHN,Yunnan,,156685,1156840276
Yulinshi,Yulinshi,38.2833,109.7333,China,CN,CHN,Shaanxi,,155960,1156280672
Muroran,Muroran,42.35,140.98,Japan,JP,JPN,Hokkaidō,,155676,1392259868
Kyŏngju,Kyongju,35.8428,129.2117,"Korea, South",KR,KOR,Gyeongbuk,,155237,1410173146
Conjeeveram,Conjeeveram,12.8337,79.7167,India,IN,IND,Tamil Nādu ,,155029,1356148941
Beian,Beian,48.239,126.482,China,CN,CHN,Heilongjiang,,154936,1156084414
Battambang,Battambang,13.1,103.2,Cambodia,KH,KHM,Battambang,admin,154773,1116106237
Guangshui,Guangshui,31.6204,114,China,CN,CHN,Hubei,,154771,1156267419
Pathum Thani,Pathum Thani,14.0171,100.5333,Thailand,TH,THA,Pathum Thani,admin,154412,1764434288
Tottori,Tottori,35.5004,134.2333,Japan,JP,JPN,Tottori,,154098,1392416969
Fyzābād,Fyzabad,26.7504,82.17,India,IN,IND,Uttar Pradesh,,153047,1356032860
Dingzhou,Dingzhou,38.5004,115,China,CN,CHN,Hebei,,152934,1156656582
Silchar,Silchar,24.7904,92.79,India,IN,IND,Assam,,152393,1356102467
Kaihua,Kaihua,23.3724,104.2497,China,CN,CHN,Yunnan,minor,152388,1156017759
Mudon,Mudon,16.2618,97.7215,Burma,MM,MMR,Mon State,,152300,1104174785
Deyang,Deyang,31.1333,104.4,China,CN,CHN,Sichuan,minor,152194,1156127147
Bintulu,Bintulu,3.1664,113.036,Malaysia,MY,MYS,Sarawak,,151617,1458164361
Yilan,Yilan,24.75,121.75,Taiwan,TW,TWN,Yilan,admin,150000,1158534780
Miaoli,Miaoli,24.57,120.82,Taiwan,TW,TWN,Miaoli,admin,150000,1158446494
Pattani,Pattani,6.864,101.25,Thailand,TH,THA,Pattani,admin,150000,1764277891
Cao Lãnh,Cao Lanh,10.467,105.636,Vietnam,VN,VNM,Đồng Tháp,admin,149837,1704276832
Xicheng,Xicheng,23.38,103.1501,China,CN,CHN,Yunnan,minor,149105,1156161838
Palangkaraya,Palangkaraya,-2.2096,113.91,Indonesia,ID,IDN,Kalimantan Tengah,admin,148289,1360268553
Jiayuguan,Jiayuguan,39.82,98.3,China,CN,CHN,Gansu,minor,148279,1156177210
Yala,Yala,6.5505,101.2851,Thailand,TH,THA,Yala,admin,148140,1764430323
Lạng Sơn,Lang Son,21.846,106.757,Vietnam,VN,VNM,Lạng Sơn,admin,148000,1704004349
Trang,Trang,7.5634,99.608,Thailand,TH,THA,Trang,admin,147820,1764343817
Turbat,Turbat,25.9918,63.0718,Pakistan,PK,PAK,Balochistān,,147791,1586017339
Ambāla,Ambala,30.32,76.82,India,IN,IND,Haryāna,,146787,1356947216
Cam Ranh,Cam Ranh,11.902,109.2207,Vietnam,VN,VNM,Khánh Hòa,,146771,1704104189
Dawei,Dawei,14.098,98.195,Burma,MM,MMR,Taninthayi,admin,146212,1104373474
Hanzhong,Hanzhong,33.13,107.03,China,CN,CHN,Shaanxi,,145986,1156382678
Krishnanagar,Krishnanagar,23.3803,88.53,India,IN,IND,West Bengal,,145926,1356128689
Phra Nakhon Si Ayutthaya,Phra Nakhon Si Ayutthaya,14.3588,100.5684,Thailand,TH,THA,Phra Nakhon Si Ayutthaya,admin,145615,1764002329
Kolār,Kolar,13.1337,78.1334,India,IN,IND,Karnātaka,,144625,1356953848
Jinchang,Jinchang,38.4957,102.1739,China,CN,CHN,Gansu,minor,144363,1156184861
Otaru,Otaru,43.1887,140.9783,Japan,JP,JPN,Hokkaidō,,143792,1392240421
Pleiku,Pleiku,13.9833,108,Vietnam,VN,VNM,Gia Lai,admin,142900,1704220080
Nawābganj,Nawabganj,24.5804,88.35,Bangladesh,BD,BGD,Rājshāhi,,142361,1050253103
Altay,Altay,47.8666,88.1166,China,CN,CHN,Xinjiang,minor,142000,1156855629
Jieshou,Jieshou,33.2504,115.35,China,CN,CHN,Anhui,,141993,1156304827
Phuket,Phuket,7.8765,98.3815,Thailand,TH,THA,Phuket,admin,141618,1764327831
Nong’an,Nong'an,44.4304,125.1701,China,CN,CHN,Jilin,minor,141482,1156278589
Lhokseumawe,Lhokseumawe,5.1914,97.1415,Indonesia,ID,IDN,Aceh,,140322,1360418625
Dunhuang,Dunhuang,40.1427,94.662,China,CN,CHN,Gansu,,140094,1156068377
Kumbakonam,Kumbakonam,10.9805,79.4,India,IN,IND,Tamil Nādu ,,139264,1356172305
Myitkyina,Myitkyina,25.3596,97.3928,Burma,MM,MMR,Kachin State,admin,139100,1104327329
Tiruvannāmalai,Tiruvannamalai,12.2604,79.1,India,IN,IND,Tamil Nādu ,,138243,1356561184
Zalantun,Zalantun,48,122.72,China,CN,CHN,Inner Mongolia,minor,138032,1156280237
Pābna,Pabna,24.0004,89.25,Bangladesh,BD,BGD,,,137888,1050424286
Tân An,Tan An,10.5337,106.4167,Vietnam,VN,VNM,Long An,admin,137498,1704199290
Shizuishan,Shizuishan,39.2333,106.769,China,CN,CHN,Ningxia,,136570,1156361664
Cẩm Phả,Cam Pha,21.0404,107.32,Vietnam,VN,VNM,Quảng Ninh,minor,135477,1704985016
Pyay,Pyay,18.8165,95.2114,Burma,MM,MMR,Bago,,135308,1104978348
Yunxian Chengguanzhen,Yunxian Chengguanzhen,32.8082,110.8136,China,CN,CHN,Hubei,minor,133558,1156455844
Birgañj,Birganj,27.0004,84.8666,Nepal,NP,NPL,,,133238,1524676691
Blitar,Blitar,-8.0696,112.15,Indonesia,ID,IDN,Jawa Timur,,132416,1360011677
Trà Vinh,Tra Vinh,9.934,106.334,Vietnam,VN,VNM,Trà Vinh,admin,131360,1704929966
Pīlibhīt,Pilibhit,28.64,79.81,India,IN,IND,Uttar Pradesh,,131008,1356147005
Shuangcheng,Shuangcheng,45.3503,126.28,China,CN,CHN,Heilongjiang,,130710,1156257611
Abohar,Abohar,30.1204,74.29,India,IN,IND,Punjab,,130603,1356846795
Ninh Bình,Ninh Binh,20.2543,105.975,Vietnam,VN,VNM,Ninh Bình,admin,130517,1704442748
Andong,Andong,36.5659,128.725,"Korea, South",KR,KOR,Gyeongbuk,admin,129319,1410095935
Batticaloa,Batticaloa,7.717,81.7,Sri Lanka,LK,LKA,Eastern,,129222,1144464659
Port Blair,Port Blair,11.667,92.736,India,IN,IND,Andaman and Nicobar Islands,admin,127562,1356161713
Alīpur Duār,Alipur Duar,26.4837,89.5667,India,IN,IND,West Bengal,,127342,1356472105
Pakokku,Pakokku,21.332,95.0866,Burma,MM,MMR,Magway,,126938,1104161315
Hāthras,Hathras,27.6,78.05,India,IN,IND,Uttar Pradesh,,126882,1356072147
Tây Ninh,Tay Ninh,11.323,106.147,Vietnam,VN,VNM,Tây Ninh,admin,126370,1704250951
Macheng,Macheng,31.18,115.03,China,CN,CHN,Hubei,,126366,1156949639
Tengyue,Tengyue,25.0333,98.4666,China,CN,CHN,Yunnan,minor,126058,1156832866
Magway,Magway,20.1445,94.9196,Burma,MM,MMR,Magway,admin,125973,1104246517
Pangkalpinang,Pangkalpinang,-2.08,106.15,Indonesia,ID,IDN,Kepulauan Bangka Belitung,admin,125933,1360901919
Sorong,Sorong,-0.8554,131.285,Indonesia,ID,IDN,Papua Barat,,125535,1360018780
Mỹ Tho,My Tho,10.3504,106.35,Vietnam,VN,VNM,Tiền Giang,admin,124143,1704000376
Laiwu,Laiwu,36.2004,117.66,China,CN,CHN,Shandong,,124108,1156207332
Indramayu,Indramayu,-6.3356,108.319,Indonesia,ID,IDN,Jawa Barat,minor,123263,1360004807
Minzhu,Minzhu,43.7163,127.346,China,CN,CHN,Jilin,minor,123018,1156295044
Pati,Pati,-6.7415,111.0347,Indonesia,ID,IDN,Jawa Tengah,minor,122785,1360407556
Lianhe,Lianhe,47.1364,129.2859,China,CN,CHN,Heilongjiang,minor,121367,1156101860
Huanghua,Huanghua,38.3704,117.33,China,CN,CHN,Hebei,,120000,1156131099
Anuradhapura,Anuradhapura,8.35,80.3833,Sri Lanka,LK,LKA,North Central,admin,118302,1144764835
Tongren,Tongren,27.6804,109.13,China,CN,CHN,Guizhou,,118290,1156803442
Nakhon Pathom,Nakhon Pathom,13.818,100.064,Thailand,TH,THA,Nakhon Pathom,admin,117927,1764251992
Langsa,Langsa,4.6736,97.9664,Indonesia,ID,IDN,Aceh,,117256,1360337304
Chiang Rai,Chiang Rai,19.9119,99.8265,Thailand,TH,THA,Chiang Rai,admin,117127,1764748484
Huanren,Huanren,41.2563,125.346,China,CN,CHN,Liaoning,,116621,1156625066
Guangming,Guangming,45.3304,122.78,China,CN,CHN,Jilin,minor,116611,1156955625
Yakeshi,Yakeshi,49.2804,120.73,China,CN,CHN,Inner Mongolia,minor,116284,1156666223
Binzhou,Binzhou,37.3704,118.02,China,CN,CHN,Shandong,,115893,1156564962
Tuguegarao,Tuguegarao,17.6131,121.7269,Philippines,PH,PHL,Cagayan,admin,115105,1608110634
Vālpārai,Valparai,10.3204,76.97,India,IN,IND,Tamil Nādu ,,114308,1356065507
Zhijiang,Zhijiang,27.4409,109.678,China,CN,CHN,Hunan,minor,113907,1156128936
Kōenchō,Koencho,43.8504,143.9,Japan,JP,JPN,Hokkaidō,,113137,1392099278
Shaowu,Shaowu,27.3004,117.5,China,CN,CHN,Fujian,,112585,1156978131
Mojokerto,Mojokerto,-7.4696,112.43,Indonesia,ID,IDN,Jawa Timur,,112557,1360053101
Nakhon Sawan,Nakhon Sawan,15.7,100.07,Thailand,TH,THA,Nakhon Sawan,admin,111915,1764821078
Kandy,Kandy,7.28,80.67,Sri Lanka,LK,LKA,Central,admin,111701,1144308408
Kuqa,Kuqa,41.7277,82.9364,China,CN,CHN,Xinjiang,minor,111499,1156894895
Magelang,Magelang,-7.4696,110.18,Indonesia,ID,IDN,Jawa Tengah,,111461,1360065728
Yenangyaung,Yenangyaung,20.4615,94.881,Burma,MM,MMR,Magway,,110553,1104118838
Qingnian,Qingnian,36.8504,115.68,China,CN,CHN,Shandong,minor,110046,1156689964
Hailun,Hailun,47.4504,126.93,China,CN,CHN,Heilongjiang,minor,109881,1156804488
Dali,Dali,34.7953,109.9378,China,CN,CHN,Shaanxi,minor,109696,1156708054
Tieli,Tieli,46.9504,128.05,China,CN,CHN,Heilongjiang,minor,109636,1156769379
Heihe,Heihe,50.25,127.446,China,CN,CHN,Heilongjiang,minor,109427,1156339225
Siem Reap,Siem Reap,13.3666,103.85,Cambodia,KH,KHM,Siem Reap,admin,109398,1116263015
Karamay,Karamay,45.5899,84.8599,China,CN,CHN,Xinjiang,minor,108769,1156892128
Trincomalee,Trincomalee,8.569,81.233,Sri Lanka,LK,LKA,Eastern,admin,108420,1144417074
Nehe,Nehe,48.49,124.88,China,CN,CHN,Heilongjiang,,108253,1156609562
Golmud,Golmud,36.4166,94.8833,China,CN,CHN,Qinghai,minor,107092,1156083724
Ratchaburi,Ratchaburi,13.5419,99.8215,Thailand,TH,THA,Ratchaburi,admin,106996,1764773366
Taungoo,Taungoo,18.9483,96.4179,Burma,MM,MMR,Bago,,106945,1104269989
Douliu,Douliu,23.7075,120.5439,Taiwan,TW,TWN,Yunlin,admin,106653,1158732750
Longjiang,Longjiang,47.3404,123.18,China,CN,CHN,Heilongjiang,minor,106384,1156263974
Raba,Raba,-8.45,118.7666,Indonesia,ID,IDN,Nusa Tenggara Barat,minor,106101,1360014952
Lahad Datu,Lahad Datu,5.0464,118.336,Malaysia,MY,MYS,Sabah,,105622,1458472057
Kon Tum,Kon Tum,14.3838,107.9833,Vietnam,VN,VNM,Kon Tum,,105489,1704082555
Hòa Bình,Hoa Binh,20.8137,105.3383,Vietnam,VN,VNM,Hòa Bình,admin,105260,1704237072
Nong Khai,Nong Khai,17.8733,102.7479,Thailand,TH,THA,Nong Khai,admin,104505,1764279113
Maumere,Maumere,-8.6189,122.2123,Indonesia,ID,IDN,Nusa Tenggara Timur,minor,104285,1360776014
Kilinochchi,Kilinochchi,9.4004,80.3999,Sri Lanka,LK,LKA,Northern,,103717,1144468936
Biak,Biak,-1.1615,136.0485,Indonesia,ID,IDN,Papua,minor,103610,1360911386
Prabumulih,Prabumulih,-3.4432,104.2315,Indonesia,ID,IDN,Sumatera Selatan,minor,103470,1360148993
Vĩnh Long,Vinh Long,10.256,105.964,Vietnam,VN,VNM,Vĩnh Long,admin,103314,1704262419
Roxas City,Roxas City,11.5853,122.7511,Philippines,PH,PHL,Capiz,admin,102688,1608344583
Houzhuang,Houzhuang,35.62,111.21,China,CN,CHN,Shanxi,,102400,1156080869
Bontang,Bontang,0.1333,117.5,Indonesia,ID,IDN,Kalimantan Timur,,101691,1360692406
Teluk Intan,Teluk Intan,4.0119,101.0314,Malaysia,MY,MYS,Perak,,101659,1458126062
Dera Ismail Khan,Dera Ismail Khan,31.829,70.8986,Pakistan,PK,PAK,Khyber Pakhtunkhwa,minor,101616,1586008360
Sakata,Sakata,38.92,139.8501,Japan,JP,JPN,Yamagata,,100446,1392418961
Chanthaburi,Chanthaburi,12.6133,102.0979,Thailand,TH,THA,Chanthaburi,admin,99819,1764151688
Tumen,Tumen,42.97,129.8201,China,CN,CHN,Jilin,,99721,1156872358
Galle,Galle,6.03,80.24,Sri Lanka,LK,LKA,Southern,admin,99478,1144191486
Ozamiz City,Ozamiz City,8.1462,123.8444,Philippines,PH,PHL,Misamis Occidental,,97806,1608100412
Yên Bái,Yen Bai,21.705,104.875,Vietnam,VN,VNM,Yên Bái,admin,96540,1704249231
Yishui,Yishui,35.7904,118.62,China,CN,CHN,Shandong,,94115,1156736933
Dalai,Dalai,45.5,124.3,China,CN,CHN,Jilin,,93297,1156912899
Kohima,Kohima,25.667,94.1166,India,IN,IND,Nāgāland,admin,92113,1356332206
Phetchaburi,Phetchaburi,13.1133,99.9412,Thailand,TH,THA,Phetchaburi,admin,90497,1764000534
Fujin,Fujin,47.2704,132.02,China,CN,CHN,Heilongjiang,,89442,1156404715
Wangqing,Wangqing,43.3248,129.7343,China,CN,CHN,Jilin,minor,88732,1156184335
Surigao,Surigao,9.7843,125.4888,Philippines,PH,PHL,Surigao del Norte,admin,87832,1608611556
Mishan,Mishan,45.5504,131.88,China,CN,CHN,Heilongjiang,,87257,1156267144
Nenjiang,Nenjiang,49.18,125.23,China,CN,CHN,Heilongjiang,minor,87236,1156694308
Chumphon,Chumphon,10.5127,99.1872,Thailand,TH,THA,Chumphon,admin,85686,1764012939
Kampong Cham,Kampong Cham,12.0004,105.45,Cambodia,KH,KHM,Kampong Cham,admin,83233,1116115849
Nan,Nan,18.7868,100.7715,Thailand,TH,THA,Nan,admin,82483,1764061223
Cukai,Cukai,4.2332,103.4479,Malaysia,MY,MYS,Terengganu,,82425,1458033606
Prachin Buri,Prachin Buri,14.0572,101.3768,Thailand,TH,THA,Prachin Buri,admin,79757,1764262472
Shulan,Shulan,44.4091,126.9487,China,CN,CHN,Jilin,,78764,1156989733
Sagaing,Sagaing,21.88,95.962,Burma,MM,MMR,Sagaing,admin,78739,1104151403
Gangtok,Gangtok,27.3333,88.6166,India,IN,IND,Sikkim,admin,77900,1356689564
Uttaradit,Uttaradit,17.6316,100.0972,Thailand,TH,THA,Uttaradit,admin,76630,1764146253
Sakon Nakhon,Sakon Nakhon,17.1679,104.1479,Thailand,TH,THA,Sakon Nakhon,admin,76237,1764476362
Kampong Chhnang,Kampong Chhnang,12.2505,104.6666,Cambodia,KH,KHM,Kampong Chhnang,admin,75244,1116735270
Manokwari,Manokwari,-0.8711,134.0693,Indonesia,ID,IDN,Papua Barat,admin,74504,1360451991
Shancheng,Shancheng,34.7904,116.08,China,CN,CHN,Shandong,,74459,1156514157
Prey Veng,Prey Veng,11.484,105.324,Cambodia,KH,KHM,Prey Veng,admin,74000,1116378797
Anlu,Anlu,31.27,113.67,China,CN,CHN,Hubei,minor,71198,1156406202
Saraburi,Saraburi,14.5304,100.88,Thailand,TH,THA,Sara Buri,admin,70769,1764111243
Tuy Hòa,Tuy Hoa,13.082,109.316,Vietnam,VN,VNM,Phú Yên,admin,69596,1704697424
Matara,Matara,5.949,80.5428,Sri Lanka,LK,LKA,Southern,,68244,1144127163
Narathiwat,Narathiwat,6.4318,101.8214,Thailand,TH,THA,Narathiwat,admin,68112,1764748532
Putrajaya,Putrajaya,2.914,101.7019,Malaysia,MY,MYS,Putrajaya,admin,67964,1458000206
Calbayog City,Calbayog City,12.0672,124.6042,Philippines,PH,PHL,Samar,,67921,1608088739
Lào Cai,Lao Cai,22.5014,103.966,Vietnam,VN,VNM,Lào Cai,admin,67206,1704290986
Panaji,Panaji,15.492,73.818,India,IN,IND,Goa,admin,65586,1356909212
Nepālgañj,Nepalganj,28.0503,81.6167,Nepal,NP,NPL,,,64400,1524207917
Kangar,Kangar,6.433,100.19,Malaysia,MY,MYS,Perlis,admin,63869,1458939333
Kanchanaburi,Kanchanaburi,14.0174,99.522,Thailand,TH,THA,Kanchanaburi,admin,63699,1764455558
Samut Sakhon,Samut Sakhon,13.536,100.274,Thailand,TH,THA,Samut Sakhon,admin,63498,1764502057
Surin,Surin,14.8868,103.4915,Thailand,TH,THA,Surin,admin,62536,1764813179
Jianguang,Jianguang,28.2004,115.77,China,CN,CHN,Jiangxi,,61469,1156545200
Bến Tre,Ben Tre,10.235,106.375,Vietnam,VN,VNM,Bến Tre,admin,59442,1704108909
Kamphaeng Phet,Kamphaeng Phet,16.473,99.529,Thailand,TH,THA,Kamphaeng Phet,admin,58787,1764367755
Chaiyaphum,Chaiyaphum,15.804,102.0386,Thailand,TH,THA,Chaiyaphum,admin,58350,1764784757
Hải Dương,Hai Duong,20.942,106.331,Vietnam,VN,VNM,Hải Dương,admin,58030,1704909566
Suileng,Suileng,47.246,127.106,China,CN,CHN,Heilongjiang,minor,57789,1156128173
Lop Buri,Lop Buri,14.804,100.6186,Thailand,TH,THA,Lop Buri,admin,57761,1764574750
Magong,Magong,23.5667,119.5833,Taiwan,TW,TWN,Penghu,admin,56435,1158297836
Nakhon Phanom,Nakhon Phanom,17.3945,104.7695,Thailand,TH,THA,Nakhon Phanom,admin,55377,1764103547
Kalasin,Kalasin,16.428,103.509,Thailand,TH,THA,Kalasin,admin,55102,1764060973
Bắc Giang,Bac Giang,21.267,106.2,Vietnam,VN,VNM,Bắc Giang,admin,53728,1704256754
Suphan Buri,Suphan Buri,14.471,100.129,Thailand,TH,THA,Suphan Buri,admin,53399,1764759549
Pursat,Pursat,12.5337,103.9167,Cambodia,KH,KHM,Pursat,admin,52476,1116566865
Maha Sarakham,Maha Sarakham,16.184,103.298,Thailand,TH,THA,Maha Sarakham,admin,51584,1764568961
Phetchabun,Phetchabun,16.419,101.159,Thailand,TH,THA,Phetchabun,admin,50656,1764518331
Sisophon,Sisophon,13.5838,102.9833,Cambodia,KH,KHM,Banteay Meanchey,admin,50302,1116276411
Kampot,Kampot,10.6171,104.1833,Cambodia,KH,KHM,Kampot,admin,50105,1116966757
Hpa-An,Hpa-An,16.85,97.6167,Burma,MM,MMR,Kayin State,admin,50000,1104494124
Chachoengsao,Chachoengsao,13.679,101.076,Thailand,TH,THA,Chachoengsao,admin,49741,1764632382
Songkhla,Songkhla,7.21,100.56,Thailand,TH,THA,Songkhla,admin,48616,1764543650
Vigan,Vigan,17.5747,120.3869,Philippines,PH,PHL,Ilocos Sur,admin,48545,1608368724
Ratnapura,Ratnapura,6.693,80.386,Sri Lanka,LK,LKA,Sabaragamuwa,admin,47832,1144739208
Badulla,Badulla,6.9837,81.0499,Sri Lanka,LK,LKA,Uva,admin,47587,1144962750
Buri Ram,Buri Ram,15.0004,103.1166,Thailand,TH,THA,Buriram,admin,47292,1764141031
Puttalam,Puttalam,8.033,79.826,Sri Lanka,LK,LKA,North Western,,45661,1144219740
Itanagar,Itanagar,27.1004,93.6166,India,IN,IND,Arunāchal Pradesh,admin,44971,1356023817
Si Sa Ket,Si Sa Ket,15.1203,104.3298,Thailand,TH,THA,Sisaket,admin,44751,1764002764
Phatthalung,Phatthalung,7.615,100.081,Thailand,TH,THA,Phatthalung,admin,43522,1764240863
Cao Bằng,Cao Bang,22.664,106.268,Vietnam,VN,VNM,Cao Bằng,admin,41112,1704552735
Daman,Daman,20.417,72.85,India,IN,IND,Damān and Diu,admin,39737,1356008028
Roi Et,Roi Et,16.051,103.655,Thailand,TH,THA,Roi Et,admin,39328,1764216668
Phrae,Phrae,18.1533,100.1629,Thailand,TH,THA,Phrae,admin,38538,1764209592
Hà Giang,Ha Giang,22.8337,104.9833,Vietnam,VN,VNM,Hà Giang,admin,38362,1704495953
Rayong,Rayong,12.6718,101.2815,Thailand,TH,THA,Rayong,admin,37035,1764920057
Tuyên Quang,Tuyen Quang,21.818,105.211,Vietnam,VN,VNM,Tuyên Quang,admin,36430,1704662313
Phichit,Phichit,16.439,100.349,Thailand,TH,THA,Phichit,admin,35760,1764024236
Loei,Loei,17.4919,101.7315,Thailand,TH,THA,Loei,admin,35273,1764996883
Samut Songkhram,Samut Songkhram,13.413,100.001,Thailand,TH,THA,Samut Songkhram,admin,35065,1764305010
Taibao,Taibao,23.45,120.3333,Taiwan,TW,TWN,Chiayi,admin,35000,1158657404
Satun,Satun,6.6167,100.0667,Thailand,TH,THA,Satun,admin,34544,1764836023
Prachuap Khiri Khan,Prachuap Khiri Khan,11.803,99.8,Thailand,TH,THA,Prachuap Khiri Khan,admin,33521,1764877766
Kampong Speu,Kampong Speu,11.452,104.519,Cambodia,KH,KHM,Kampong Speu,admin,33231,1116446492
Tak,Tak,16.8847,99.1293,Thailand,TH,THA,Tak,admin,33146,1764055292
Koh Kong,Koh Kong,11.6175,102.9849,Cambodia,KH,KHM,Koh Kong,admin,33134,1116924669
Krabi,Krabi,8.052,98.912,Thailand,TH,THA,Krabi,admin,31219,1764587855
Stung Treng,Stung Treng,13.523,105.974,Cambodia,KH,KHM,Stung Treng,admin,29665,1116286673
Bắc Kạn,Bac Kan,22.1333,105.8333,Vietnam,VN,VNM,Bắc Kạn,admin,29227,1704000217
Silvassa,Silvassa,20.2666,73.0166,India,IN,IND,Dādra and Nagar Haveli,admin,27359,1356217846
Ranong,Ranong,9.962,98.638,Thailand,TH,THA,Ranong,admin,24561,1764623795
Tbeng Meanchey,Tbeng Meanchey,13.8167,104.9667,Cambodia,KH,KHM,Preah Vihear,admin,24380,1116207762
Svay Rieng,Svay Rieng,11.08,105.801,Cambodia,KH,KHM,Svay Rieng,admin,23956,1116432743
Uthai Thani,Uthai Thani,15.3819,100.0264,Thailand,TH,THA,Uthai Thani,admin,22219,1764844835
Yasothon,Yasothon,15.788,104.151,Thailand,TH,THA,Yasothon,admin,21643,1764520637
Trat,Trat,12.237,102.509,Thailand,TH,THA,Trat,admin,21590,1764126822
Nakhon Nayok,Nakhon Nayok,14.2,101.216,Thailand,TH,THA,Nakhon Nayok,admin,21309,1764068248
Phayao,Phayao,19.1707,99.9083,Thailand,TH,THA,Phayao,admin,21058,1764291128
Sing Buri,Sing Buri,14.887,100.401,Thailand,TH,THA,Sing Buri,admin,20046,1764482111
Hakha,Hakha,22.65,93.6167,Burma,MM,MMR,Chin State,admin,20000,1104739581
Kratie,Kratie,12.469,106.024,Cambodia,KH,KHM,Kratie,admin,19975,1116453792
Sơn La,Son La,21.328,103.91,Vietnam,VN,VNM,Sơn La,admin,19054,1704957010
Đông Hà,Dong Ha,16.85,107.1333,Vietnam,VN,VNM,Quảng Trị,admin,17662,1704264596
Loikaw,Loikaw,19.665,97.206,Burma,MM,MMR,Kayah State,admin,17293,1104542517
Dispur,Dispur,26.144,91.7666,India,IN,IND,Assam,admin,16140,1356960169
Chai Nat,Chai Nat,15.179,100.126,Thailand,TH,THA,Chai Nat,admin,15469,1764848732
Takeo,Takeo,10.9838,104.7833,Cambodia,KH,KHM,Takeo,admin,15264,1116674518
Lamphun,Lamphun,18.503,99.074,Thailand,TH,THA,Lamphun,admin,14030,1764104264
Ang Thong,Ang Thong,14.5833,100.45,Thailand,TH,THA,Ang Thong,admin,13738,1764529940
Kavaratti,Kavaratti,10.5626,72.6369,India,IN,IND,Lakshadweep,admin,10688,1356089869
Sukhothai,Sukhothai,17.0119,99.7515,Thailand,TH,THA,Sukhothai,admin,10276,1764175777
Phangnga,Phangnga,8.451,98.534,Thailand,TH,THA,Phangnga,admin,9676,1764855952
Mae Hong Son,Mae Hong Son,19.301,97.969,Thailand,TH,THA,Mae Hong Son,admin,9109,1764090874
Sen Monorom,Sen Monorom,12.45,107.2,Cambodia,KH,KHM,Mondolkiri,admin,7944,1116978997
Magugpo Poblacion,Magugpo Poblacion,7.3821,125.8017,Philippines,PH,PHL,Davao del Norte,,6726,1608255342
San Carlos,San Carlos,10.5504,123.38,Philippines,PH,PHL,Negros Occidental,,6353,1608048026
Fulin,Fulin,29.35,102.7167,China,CN,CHN,Sichuan,,1049,1156759821
Gingoog,Gingoog,8.8304,125.13,Philippines,PH,PHL,Misamis Oriental,,218,1608630986
Antipolo,Antipolo,14.5886,121.1757,Philippines,PH,PHL,Rizal,admin,,1608824345
Navotas,Navotas,14.6477,120.9591,Philippines,PH,PHL,Navotas,admin,,1608538447
Mandaluyong City,Mandaluyong City,14.5832,121.0409,Philippines,PH,PHL,Mandaluyong,admin,,1608166320
Mandaue City,Mandaue City,10.3237,123.9436,Philippines,PH,PHL,Mandaue,admin,,1608794590
Pasig City,Pasig City,14.5604,121.0812,Philippines,PH,PHL,Pasig,admin,,1608278212
Banqiao,Banqiao,25.0143,121.4672,Taiwan,TW,TWN,New Taipei,admin,,1158987347
Caloocan City,Caloocan City,14.6492,120.9826,Philippines,PH,PHL,Caloocan,admin,,1608897690
San Juan,San Juan,14.6,121.0333,Philippines,PH,PHL,San Juan,admin,,1608817515
Valenzuela,Valenzuela,14.6936,120.9656,Philippines,PH,PHL,Valenzuela,admin,,1608492120
City of Parañaque,City of Paranaque,14.4978,120.9907,Philippines,PH,PHL,Parañaque,admin,,1608379532
Lucena,Lucena,13.9348,121.6127,Philippines,PH,PHL,Lucena,admin,,1608000461
Masbate,Masbate,12.3687,123.6225,Philippines,PH,PHL,Masbate,admin,,1608802236
Tandag,Tandag,9.0783,126.1986,Philippines,PH,PHL,Surigao del Sur,admin,,1608155856
Malabon,Malabon,14.6691,120.972,Philippines,PH,PHL,Malabon,admin,,1608045841
Oroquieta,Oroquieta,8.4859,123.8048,Philippines,PH,PHL,Misamis Occidental,admin,,1608239509
Đà Nẵng,Da Nang,16.0748,108.224,Vietnam,VN,VNM,Đà Nẵng,admin,,1704949870
Catarman,Catarman,12.4989,124.6377,Philippines,PH,PHL,Northern Samar,admin,,1608432162
La Trinidad,La Trinidad,16.4556,120.5903,Philippines,PH,PHL,Benguet,admin,,1608000107
Marawi City,Marawi City,8.0034,124.2839,Philippines,PH,PHL,Lanao del Sur,admin,,1608812117
Taguig City,Taguig City,14.5289,121.0723,Philippines,PH,PHL,Taguig,admin,,1608766695
Lapu-Lapu City,Lapu-Lapu City,10.3103,123.9494,Philippines,PH,PHL,Lapu-Lapu,admin,,1608430676
Balanga,Balanga,14.6761,120.5361,Philippines,PH,PHL,Bataan,admin,,1608467104
Santiago,Santiago,16.6881,121.5472,Philippines,PH,PHL,Santiago,admin,,1608477470
Dumaguete City,Dumaguete City,9.307,123.3074,Philippines,PH,PHL,Negros Oriental,admin,,1608682936
Marikina City,Marikina City,14.6414,121.1118,Philippines,PH,PHL,Marikina,admin,,1608000077
Sorsogon,Sorsogon,12.9708,124.0053,Philippines,PH,PHL,Sorsogon,admin,,1608265953
Kalibo,Kalibo,11.7086,122.3648,Philippines,PH,PHL,Aklan,admin,,1608268539
Kidapawan,Kidapawan,7.0083,125.0894,Philippines,PH,PHL,Cotabato,admin,,1608883158
San Jose,San Jose,10.745,121.9415,Philippines,PH,PHL,Antique,admin,,1608138574
Daet,Daet,14.1122,122.9553,Philippines,PH,PHL,Camarines Norte,admin,,1608562606
Virac,Virac,13.5848,124.2374,Philippines,PH,PHL,Catanduanes,admin,,1608265120
Bắc Ninh,Bac Ninh,21.1861,106.0763,Vietnam,VN,VNM,Bắc Ninh,admin,,1704025181
Bayombong,Bayombong,16.4812,121.1497,Philippines,PH,PHL,Nueva Vizcaya,admin,,1608066874
Jolo,Jolo,6.0522,121.0022,Philippines,PH,PHL,Sulu,admin,,1608685440
Bongao,Bongao,5.0292,119.7731,Philippines,PH,PHL,Tawi-Tawi,admin,,1608490585
Saitama,Saitama,35.9,139.65,Japan,JP,JPN,Saitama,admin,,1392017719
Calapan,Calapan,13.4108,121.1797,Philippines,PH,PHL,Oriental Mindoro,admin,,1608578259
Tagum,Tagum,7.4475,125.8094,Philippines,PH,PHL,Davao del Norte,admin,,1608755366
Muntinlupa City,Muntinlupa City,14.4135,121.0263,Philippines,PH,PHL,Muntinlupa,admin,,1608473406
Catbalogan,Catbalogan,11.7753,124.8861,Philippines,PH,PHL,Samar,admin,,1608878798
Digos,Digos,6.7497,125.3572,Philippines,PH,PHL,Davao del Sur,admin,,1608635653
Hưng Yên,Hung Yen,20.6464,106.0511,Vietnam,VN,VNM,Hưng Yên,admin,,1704000203
Makati City,Makati City,14.5501,121.036,Philippines,PH,PHL,Makati,admin,,1608725647
Isulan,Isulan,6.6294,124.6051,Philippines,PH,PHL,Sultan Kudarat,admin,,1608085930
Trece Martires City,Trece Martires City,14.2832,120.8677,Philippines,PH,PHL,Cavite,admin,,1608990723
Boac,Boac,13.4463,121.84,Philippines,PH,PHL,Marinduque,admin,,1608972476
Janakpur,Janakpur,26.7288,85.9263,Nepal,NP,NPL,,admin,,1524563587
Tubod,Tubod,8.0555,123.7904,Philippines,PH,PHL,Lanao del Norte,admin,,1608442374
Mamburao,Mamburao,13.2233,120.596,Philippines,PH,PHL,Occidental Mindoro,admin,,1608912012
Nabunturan,Nabunturan,7.6029,125.9629,Philippines,PH,PHL,Compostela Valley,admin,,1608879246
Malita,Malita,6.415,125.6117,Philippines,PH,PHL,Davao Occidental,admin,,1608802375
Maasin,Maasin,10.1336,124.8447,Philippines,PH,PHL,Southern Leyte,admin,,1608244406
Chiba,Chiba,35.6,140.1167,Japan,JP,JPN,Chiba,admin,,1392107144
Bangued,Bangued,17.5982,120.6155,Philippines,PH,PHL,Abra,admin,,1608442037
Mambajao,Mambajao,9.2504,124.7156,Philippines,PH,PHL,Camiguin,admin,,1608281273
Naval,Naval,11.5612,124.3952,Philippines,PH,PHL,Biliran,admin,,1608929611
Dipolog,Dipolog,8.5883,123.3409,Philippines,PH,PHL,Zamboanga del Norte,admin,,1608664300
Kampong Thom,Kampong Thom,12.7111,104.8887,Cambodia,KH,KHM,Kampong Thom,admin,,1116471297
San Fernando,San Fernando,16.6186,120.3194,Philippines,PH,PHL,La Union,admin,,1608635527
Iba,Iba,15.3276,119.978,Philippines,PH,PHL,Zambales,admin,,1608986957
Ta Khmau,Ta Khmau,11.4833,104.95,Cambodia,KH,KHM,Kandal,admin,,1116571704
Malolos,Malolos,14.8443,120.8104,Philippines,PH,PHL,Bulacan,admin,,1608358783
Lingayen,Lingayen,16.0218,120.2319,Philippines,PH,PHL,Pangasinan,admin,,1608464071
Banlung,Banlung,13.7394,106.9873,Cambodia,KH,KHM,Ratanakiri,admin,,1116605438
Phủ Lý,Phu Ly,20.5453,105.9122,Vietnam,VN,VNM,Hà Nam,admin,,1704841896
Romblon,Romblon,12.5751,122.2708,Philippines,PH,PHL,Romblon,admin,,1608428749
Alabel,Alabel,6.1018,125.2905,Philippines,PH,PHL,Sarangani,admin,,1608579431
Baler,Baler,15.7589,121.5607,Philippines,PH,PHL,Aurora,admin,,1608495530
Siquijor,Siquijor,9.2142,123.515,Philippines,PH,PHL,Siquijor,admin,,1608692949
Butwāl,Butwal,27.7006,83.4484,Nepal,NP,NPL,,admin,,1524843250
Sihanoukville,Sihanoukville,10.6359,103.5017,Cambodia,KH,KHM,Sihanoukville,admin,,1116098692
Vĩnh Yên,Vinh Yen,21.3089,105.6049,Vietnam,VN,VNM,Vĩnh Phúc,admin,,1704905946
Borongan,Borongan,11.6081,125.4319,Philippines,PH,PHL,Eastern Samar,admin,,1608990192
City of Isabela,City of Isabela,6.7041,121.9712,Philippines,PH,PHL,Basilan,admin,,1608621038
San Fernando,San Fernando,15.0343,120.6844,Philippines,PH,PHL,Pampanga,admin,,1608862124
Kurunegala,Kurunegala,7.4839,80.3683,Sri Lanka,LK,LKA,North Western,admin,,1144602660
Lagawe,Lagawe,16.8,121.1192,Philippines,PH,PHL,Ifugao,admin,,1608396110
Nara,Nara,34.6833,135.8333,Japan,JP,JPN,Nara,admin,,1392520831
Malaybalay,Malaybalay,8.1575,125.1278,Philippines,PH,PHL,Bukidnon,admin,,1608859265
Tam Kỳ,Tam Ky,15.5736,108.474,Vietnam,VN,VNM,Quảng Nam,admin,,1704410655
Bà Rịa,Ba Ria,10.4963,107.1684,Vietnam,VN,VNM,Bà Rịa-Vũng Tàu,admin,,1704764642
Ipil,Ipil,7.7844,122.5861,Philippines,PH,PHL,Zamboanga Sibugay,admin,,1608307222
Palayan City,Palayan City,15.5415,121.0848,Philippines,PH,PHL,Nueva Ecija,admin,,1608192136
Ilagan,Ilagan,17.1485,121.8892,Philippines,PH,PHL,Isabela,admin,,1608190610
Labuan,Labuan,5.2803,115.2475,Malaysia,MY,MYS,Labuan,admin,,1458460967
Điện Biên Phủ,Dien Bien Phu,21.3854,103.0161,Vietnam,VN,VNM,Điện Biên,admin,,1704081536
Birendranagar,Birendranagar,28.5967,81.6166,Nepal,NP,NPL,,admin,,1524574121
Basco,Basco,20.4486,121.9702,Philippines,PH,PHL,Batanes,admin,,1608620601
Shariff Aguak,Shariff Aguak,6.8647,124.4417,Philippines,PH,PHL,Maguindanao,admin,,1608346338
Cabarroguis,Cabarroguis,16.5111,121.5212,Philippines,PH,PHL,Quirino,admin,,1608312278
Jordan,Jordan,10.6584,122.5963,Philippines,PH,PHL,Guimaras,admin,,1608769914
Nangan,Nangan,26.1504,119.9328,Taiwan,TW,TWN,Lienchiang,admin,,1158327079
Suong,Suong,11.9118,105.6582,Cambodia,KH,KHM,Tbong Khmum,admin,,1116319433
Đồng Xoài,Dong Xoai,11.5349,106.8832,Vietnam,VN,VNM,Bình Phước,admin,,1704845487
Bontoc,Bontoc,17.0899,120.978,Philippines,PH,PHL,Mountain,admin,,1608526537
Đà Lạt,Da Lat,11.9359,108.4429,Vietnam,VN,VNM,Lâm Đồng,admin,,1704933464
Kabugao,Kabugao,18.0231,121.184,Philippines,PH,PHL,Apayao,admin,,1608841504
Vị Thanh,Vi Thanh,9.7845,105.4701,Vietnam,VN,VNM,Hậu Giang,admin,,1704210026
Jincheng,Jincheng,24.4341,118.3171,Taiwan,TW,TWN,Kinmen,admin,,1158376441
Saga,Saga,33.2333,130.3,Japan,JP,JPN,Saga,admin,,1392618841
Lai Châu,Lai Chau,22.3964,103.4582,Vietnam,VN,VNM,Lai Châu,admin,,1704983526
Prosperidad,Prosperidad,8.58,125.8964,Philippines,PH,PHL,Agusan del Sur,admin,,1608461552
Cabadbaran,Cabadbaran,9.1236,125.5344,Philippines,PH,PHL,Agusan del Norte,admin,,1608889253
Kon Tum,Kon Tum,14.3545,108.0076,Vietnam,VN,VNM,Kon Tum,admin,,1704988146
Santa Cruz,Santa Cruz,14.1167,121.2833,Philippines,PH,PHL,Laguna,admin,,1608131481
Samraong,Samraong,14.1817,103.5176,Cambodia,KH,KHM,Oddar Meanchey,admin,,1116989175
Mati,Mati,6.9551,126.2166,Philippines,PH,PHL,Davao Oriental,admin,,1608000731
Tottori,Tottori,35.5,134.2333,Japan,JP,JPN,Tottori,admin,,1392675192
Koronadal,Koronadal,6.2541,124.9922,Philippines,PH,PHL,South Cotabato,admin,,1608108139
Sejong,Sejong,36.6092,127.2919,"Korea, South",KR,KOR,Sejong,admin,,1410002592
Yamaguchi,Yamaguchi,34.1833,131.4667,Japan,JP,JPN,Yamaguchi,admin,,1392887215
Gia Nghĩa,Gia Nghia,12.0042,107.6907,Vietnam,VN,VNM,Đắk Nông,admin,,1704361005
Pailin,Pailin,12.8489,102.6093,Cambodia,KH,KHM,Pailin,admin,,1116050327
Krong Kep,Krong Kep,10.4829,104.3167,Cambodia,KH,KHM,Kep,admin,,1116392544
Hongseong,Hongseong,36.6009,126.665,"Korea, South",KR,KOR,Chungnam,admin,,1410822139
Muan,Muan,34.9897,126.4714,"Korea, South",KR,KOR,Jeonnam,admin,,1410001061
Mukdahan,Mukdahan,16.5453,104.7235,Thailand,TH,THA,Mukdahan,admin,,1764994534
Nong Bua Lamphu,Nong Bua Lamphu,17.2041,102.4407,Thailand,TH,THA,Nong Bua Lamphu,admin,,1764333285
San Jose,San Jose,10.18,125.5683,Philippines,PH,PHL,Dinagat Islands,admin,,1608435522
Godāwari̇̄,Godawari,28.8755,80.5776,Nepal,NP,NPL,,admin,,1524020578
Amnat Charoen,Amnat Charoen,15.8585,104.6288,Thailand,TH,THA,Amnat Charoen,admin,,1764038011
Sa Kaeo,Sa Kaeo,13.8141,102.0722,Thailand,TH,THA,Sa Kaeo,admin,,1764207048
Bueng Kan,Bueng Kan,18.363,103.6519,Thailand,TH,THA,Bueng Kan,admin,,1764944006
Sofifi,Sofifi,0.7373,127.5588,Indonesia,ID,IDN,Maluku Utara,admin,,1360431437
Tabuk,Tabuk,17.4084,121.2785,Philippines,PH,PHL,Kalinga,admin,,1608980358
Mamuju,Mamuju,-2.6806,118.8861,Indonesia,ID,IDN,Sulawesi Barat,admin,,1360687242
Pili,Pili,13.7177,123.7448,Philippines,PH,PHL,Camarines Sur,admin,,1608825988
Tanjung Selor,Tanjung Selor,2.8375,117.3653,Indonesia,ID,IDN,Kalimantan Utara,admin,,1360029270
Qamdo,Qamdo,31.1667,97.2333,China,CN,CHN,Tibet,minor,100000,1156277802
Tsuruoka,Tsuruoka,38.7004,139.8302,Japan,JP,JPN,Yamagata,,99820,1392935450
Beichengqu,Beichengqu,40.4547,113.1443,China,CN,CHN,Inner Mongolia,minor,99174,1156401666
Shangzhi,Shangzhi,45.2204,127.97,China,CN,CHN,Heilongjiang,minor,96980,1156107332
Aurangābād,Aurangabad,24.7704,84.38,India,IN,IND,Bihār,,95929,1356920493
Sungai Penuh,Sungai Penuh,-2.0631,101.3964,Indonesia,ID,IDN,Jambi,,95913,1360337679
Boli,Boli,45.7564,130.5759,China,CN,CHN,Heilongjiang,minor,95260,1156933394
Manzhouli,Manzhouli,49.6,117.43,China,CN,CHN,Inner Mongolia,,93620,1156354568
Sampit,Sampit,-2.5329,112.95,Indonesia,ID,IDN,Kalimantan Tengah,minor,92710,1360020231
Fu’an,Fu'an,27.0704,119.62,China,CN,CHN,Fujian,minor,92470,1156244234
Maizuru,Maizuru,35.4504,135.3333,Japan,JP,JPN,Kyōto,,92465,1392353780
Dhangaḍhi̇̄,Dhangadhi,28.695,80.593,Nepal,NP,NPL,,,92294,1524561456
Danjiangkou,Danjiangkou,32.52,111.5,China,CN,CHN,Hubei,,92008,1156347994
Pingdu,Pingdu,36.7904,119.94,China,CN,CHN,Shandong,,91077,1156157078
Chauk,Chauk,20.9085,94.823,Burma,MM,MMR,Magway,,90870,1104898616
Shwebo,Shwebo,22.5783,95.6929,Burma,MM,MMR,Sagaing,,88914,1104118052
Chaman,Chaman,30.925,66.4463,Pakistan,PK,PAK,Balochistān,,88568,1586640695
Zhob,Zhob,31.349,69.4386,Pakistan,PK,PAK,Balochistān,minor,88356,1586969046
Parepare,Parepare,-4.0167,119.6333,Indonesia,ID,IDN,Sulawesi Selatan,,87776,1360021476
Changxing,Changxing,25.867,116.3167,China,CN,CHN,Fujian,,87458,1156238244
Panshi,Panshi,42.9426,126.0561,China,CN,CHN,Jilin,,86216,1156659612
Hedong,Hedong,42.5348,129.0044,China,CN,CHN,Jilin,,85756,1156223178
Sokcho,Sokcho,38.2087,128.5912,"Korea, South",KR,KOR,Gangwon,minor,85430,1410921315
Sumenep,Sumenep,-7.0049,113.8496,Indonesia,ID,IDN,Jawa Timur,minor,84656,1360439354
Linjiang,Linjiang,41.8363,126.936,China,CN,CHN,Jilin,minor,84315,1156357534
Nangong,Nangong,37.3704,115.37,China,CN,CHN,Hebei,,82386,1156426803
Kaneyama,Kaneyama,31.3833,130.85,Japan,JP,JPN,Kagoshima,,82335,1392748014
Watampone,Watampone,-4.5328,120.3334,Indonesia,ID,IDN,Sulawesi Selatan,minor,81629,1360956480
Xigazê,Xigaze,29.25,88.8833,China,CN,CHN,Tibet,minor,80000,1156107208
Koktokay,Koktokay,47.0004,89.4666,China,CN,CHN,Xinjiang,minor,80000,1156023872
Pingyi,Pingyi,35.5104,117.62,China,CN,CHN,Shandong,,78254,1156542248
Linkou,Linkou,45.2819,130.2519,China,CN,CHN,Heilongjiang,minor,77754,1156383623
Ende,Ende,-8.8623,121.6489,Indonesia,ID,IDN,Nusa Tenggara Timur,minor,77205,1360796329
Jiexiu,Jiexiu,37.04,111.9,China,CN,CHN,Shanxi,,77178,1156275703
Karūr,Karur,10.9504,78.0833,India,IN,IND,Tamil Nādu ,,76915,1356837900
Tuban,Tuban,-6.8995,112.05,Indonesia,ID,IDN,Jawa Timur,minor,76242,1360482232
Tailai,Tailai,46.3904,123.41,China,CN,CHN,Heilongjiang,minor,75992,1156294977
Quảng Trị,Quang Tri,16.7504,107.2,Vietnam,VN,VNM,Quảng Trị,,72722,1704089491
Lanxi,Lanxi,46.2664,126.276,China,CN,CHN,Heilongjiang,minor,72528,1156269575
Keshan,Keshan,48.0263,125.866,China,CN,CHN,Heilongjiang,,72403,1156775094
Baiquan,Baiquan,47.6018,126.0819,China,CN,CHN,Heilongjiang,minor,70472,1156009118
Châu Đốc,Chau Doc,10.7004,105.1167,Vietnam,VN,VNM,An Giang,,70239,1704020910
Zhanggu,Zhanggu,30.9504,101.9167,China,CN,CHN,Sichuan,minor,70000,1156031323
Jorhāt,Jorhat,26.75,94.2167,India,IN,IND,Assam,,69033,1356638741
Liuhe,Liuhe,42.2789,125.7173,China,CN,CHN,Jilin,minor,68938,1156459313
Chengjiao Chengguanzhen,Chengjiao Chengguanzhen,34.4362,104.0306,China,CN,CHN,Gansu,minor,67826,1156556377
Mansehra,Mansehra,34.3418,73.1968,Pakistan,PK,PAK,Khyber Pakhtunkhwa,minor,66486,1586902336
Huinan,Huinan,42.6229,126.2614,China,CN,CHN,Jilin,,66315,1156136342
Lahat,Lahat,-3.8,103.5333,Indonesia,ID,IDN,Sumatera Selatan,minor,65906,1360094721
Pyapon,Pyapon,16.2933,95.6829,Burma,MM,MMR,Ayeyawady,,65601,1104170402
Qinggang,Qinggang,46.69,126.1,China,CN,CHN,Heilongjiang,minor,64182,1156115921
Bhairāhawā,Bhairahawa,27.5333,83.3833,Nepal,NP,NPL,,,63367,1524444140
Sopur,Sopur,34.3,74.4667,India,IN,IND,Jammu and Kashmīr,,63035,1356978065
Tanjungpandan,Tanjungpandan,-2.75,107.65,Indonesia,ID,IDN,Kepulauan Bangka Belitung,minor,62374,1360732632
Soasio,Soasio,0.6964,127.436,Indonesia,ID,IDN,Maluku Utara,,60611,1360827216
Langzhong,Langzhong,31.5759,105.9656,China,CN,CHN,Sichuan,minor,60542,1156930148
Huazhou,Huazhou,32.6804,112.08,China,CN,CHN,Henan,minor,59338,1156796734
Gannan,Gannan,47.9204,123.51,China,CN,CHN,Heilongjiang,minor,59239,1156081008
Tezpur,Tezpur,26.6338,92.8,India,IN,IND,Assam,,58851,1356299437
Allanmyo,Allanmyo,19.3783,95.2279,Burma,MM,MMR,Magway,,57897,1104582279
Bayan Hot,Bayan Hot,38.839,105.6686,China,CN,CHN,Inner Mongolia,minor,56387,1156186483
Changling,Changling,44.27,123.99,China,CN,CHN,Jilin,minor,55841,1156262573
Parachinar,Parachinar,33.8992,70.1008,Pakistan,PK,PAK,Federally Administered Tribal Areas,,55685,1586337795
Xinqing,Xinqing,48.2363,129.5059,China,CN,CHN,Heilongjiang,,55415,1156618293
Ning’an,Ning'an,44.3313,129.4659,China,CN,CHN,Heilongjiang,minor,54636,1156629205
Ruteng,Ruteng,-8.6118,120.4698,Indonesia,ID,IDN,Nusa Tenggara Timur,minor,53976,1360084520
Qing’an,Qing'an,46.8719,127.5118,China,CN,CHN,Heilongjiang,minor,53206,1156233891
Thongwa,Thongwa,16.7547,96.5193,Burma,MM,MMR,Yangon,,52496,1104339441
Gwadar,Gwadar,25.139,62.3286,Pakistan,PK,PAK,Balochistān,minor,51901,1586857142
Ye,Ye,15.2533,97.8679,Burma,MM,MMR,Mon State,,50798,1104513802
Hua Hin,Hua Hin,12.5697,99.9443,Thailand,TH,THA,Prachuap Khiri Khan,minor,50456,1764352388
Sawahlunto,Sawahlunto,-0.6663,100.7833,Indonesia,ID,IDN,Sumatera Barat,,50354,1360188622
Pozi,Pozi,23.4611,120.2419,Taiwan,TW,TWN,Chiayi,,50000,1158227287
Lindong,Lindong,43.9837,119.1834,China,CN,CHN,Inner Mongolia,minor,50000,1156448425
Tacheng,Tacheng,46.75,82.95,China,CN,CHN,Xinjiang,minor,49796,1156191514
Yong’an,Yong'an,31.0504,109.5167,China,CN,CHN,Chongqing,minor,49168,1156185323
Waingapu,Waingapu,-9.6582,120.253,Indonesia,ID,IDN,Nusa Tenggara Timur,minor,48828,1360882365
Namtu,Namtu,23.0837,97.4,Burma,MM,MMR,Shan State,,48591,1104043404
Wakema,Wakema,16.6133,95.1829,Burma,MM,MMR,Ayeyawady,,48405,1104266529
Luwuk,Luwuk,-0.9396,122.79,Indonesia,ID,IDN,Sulawesi Tengah,minor,47778,1360727028
Amahai,Amahai,-3.3281,128.9405,Indonesia,ID,IDN,Maluku,minor,47653,1360767250
Poso,Poso,-1.3896,120.76,Indonesia,ID,IDN,Sulawesi Tengah,minor,47110,1360727615
Qingyuan,Qingyuan,24.5004,108.6667,China,CN,CHN,Guangxi,,47062,1156899793
Mae Sot,Mae Sot,16.7162,98.5708,Thailand,TH,THA,Tak,minor,45781,1764198529
Tangdukou,Tangdukou,27,111.2001,China,CN,CHN,Hunan,minor,45617,1156473609
Padangpanjang,Padangpanjang,-0.4496,100.4167,Indonesia,ID,IDN,Sumatera Barat,,44096,1360231049
Nabire,Nabire,-3.3515,135.5134,Indonesia,ID,IDN,Papua,minor,43898,1360322221
Genhe,Genhe,50.7833,121.5167,China,CN,CHN,Inner Mongolia,minor,42849,1156133257
Hulin,Hulin,45.769,132.9922,China,CN,CHN,Heilongjiang,,42559,1156161638
Kotabumi,Kotabumi,-4.8333,104.9,Indonesia,ID,IDN,Lampung,minor,42366,1360992670
Pyu,Pyu,18.4779,96.4379,Burma,MM,MMR,Bago,,40386,1104518645
Bình Long,Binh Long,11.6504,106.6,Vietnam,VN,VNM,Bình Phước,,40279,1704953411
Oroqen Zizhiqi,Oroqen Zizhiqi,50.5667,123.7167,China,CN,CHN,Inner Mongolia,minor,40128,1156444032
Raub,Raub,3.7927,101.8423,Malaysia,MY,MYS,Pahang,,40024,1458881822
